{"type":"FeatureCollection","features":[{"type":"Feature","geometry":{"type":"Point","coordinates":[5.35483769593,43.29073199454]},"properties":{"slug":"catalans-marseille","name":"Catalans","city":"Marseille","department":"Bouches-du-Rhône","type":"Eau côtière","score":135,"comfort":true,"wheelchair":false,"lifeguard":true,"dogs":false}},{"type":"Feature","geometry":{"type":"Point","coordinates":[5.89158375,45.69136670398]},"properties":{"slug":"plage-municipale-d-aix-les-bains-aqualac-aix-les-bains","name":"Plage Municipale d'Aix les Bains Aqualac","city":"Aix-les-Bains","department":"Savoie","type":"Lac","score":130,"comfort":true,"wheelchair":true,"lifeguard":true,"dogs":true}},{"type":"Feature","geometry":{"type":"Point","coordinates":[5.86540073906,45.65577658896]},"properties":{"slug":"plage-camping-l-ile-aux-cygnes-bourget-du-lac-le","name":"Plage Camping l'Ile aux Cygnes","city":"Bourget-du-Lac (Le)","department":"Savoie","type":"Lac","score":130,"comfort":true,"wheelchair":true,"lifeguard":true,"dogs":false}},{"type":"Feature","geometry":{"type":"Point","coordinates":[5.8611485885,45.65579465577]},"properties":{"slug":"plage-municipale-du-bourget-du-lac-bourget-du-lac-le","name":"Plage Municipale du Bourget du Lac","city":"Bourget-du-Lac (Le)","department":"Savoie","type":"Lac","score":130,"comfort":true,"wheelchair":true,"lifeguard":true,"dogs":false}},{"type":"Feature","geometry":{"type":"Point","coordinates":[6.65200351289,45.44112362511]},"properties":{"slug":"plan-d-eau-de-bozel-bozel","name":"Plan d'Eau de Bozel","city":"Bozel","department":"Savoie","type":"Lac","score":130,"comfort":true,"wheelchair":true,"lifeguard":true,"dogs":true}},{"type":"Feature","geometry":{"type":"Point","coordinates":[6.28792259934,45.48180041532]},"properties":{"slug":"plan-d-eau-des-hurtieres-saint-alban-d-hurtieres","name":"Plan d'Eau des Hurtieres","city":"Saint-Alban-d'Hurtieres","department":"Savoie","type":"Lac","score":130,"comfort":true,"wheelchair":true,"lifeguard":true,"dogs":true}},{"type":"Feature","geometry":{"type":"Point","coordinates":[6.16572064015,45.55691502733]},"properties":{"slug":"plan-d-eau-de-carouge-saint-pierre-d-albigny","name":"Plan d'Eau de Carouge","city":"Saint-Pierre-d'Albigny","department":"Savoie","type":"Lac","score":130,"comfort":true,"wheelchair":true,"lifeguard":true,"dogs":true}},{"type":"Feature","geometry":{"type":"Point","coordinates":[6.17327626784,45.8440262309]},"properties":{"slug":"saint-jorioz-municipale-saint-jorioz","name":"Saint-Jorioz  Municipale","city":"Saint-Jorioz","department":"Haute-Savoie","type":"Lac","score":130,"comfort":true,"wheelchair":true,"lifeguard":true,"dogs":false}},{"type":"Feature","geometry":{"type":"Point","coordinates":[6.60527306685,48.01407221303]},"properties":{"slug":"le-lit-d-eau-remiremont","name":"Le Lit d'Eau","city":"Remiremont","department":"Vosges","type":"Lac","score":130,"comfort":true,"wheelchair":true,"lifeguard":true,"dogs":true}},{"type":"Feature","geometry":{"type":"Point","coordinates":[-1.52303596948,43.34665753387]},"properties":{"slug":"plage-lac-st-pee-sur-nivelle-saint-pee-sur-nivelle","name":"Plage Lac St Pee sur Nivelle","city":"Saint-Pee-sur-Nivelle","department":"Pyrénées-Atlantiques","type":"Lac","score":130,"comfort":true,"wheelchair":true,"lifeguard":true,"dogs":false}},{"type":"Feature","geometry":{"type":"Point","coordinates":[4.94063960351,45.80164835224]},"properties":{"slug":"miribel-plage-de-l-atol-vaulx-en-velin","name":"Miribel-Plage de l'Atol","city":"Vaulx-en-Velin","department":"Rhône","type":"Lac","score":125,"comfort":true,"wheelchair":false,"lifeguard":true,"dogs":false}},{"type":"Feature","geometry":{"type":"Point","coordinates":[5.89472028381,45.68914153485]},"properties":{"slug":"plage-du-rowing-aix-les-bains","name":"Plage du Rowing","city":"Aix-les-Bains","department":"Savoie","type":"Lac","score":125,"comfort":false,"wheelchair":true,"lifeguard":true,"dogs":true}},{"type":"Feature","geometry":{"type":"Point","coordinates":[5.98029244566,45.55490419393]},"properties":{"slug":"plan-d-eau-challes-les-eaux-challes-les-eaux","name":"Plan d'Eau Challes les Eaux","city":"Challes-les-Eaux","department":"Savoie","type":"Lac","score":125,"comfort":true,"wheelchair":true,"lifeguard":true,"dogs":false}},{"type":"Feature","geometry":{"type":"Point","coordinates":[6.2698804831,45.39278137038]},"properties":{"slug":"plan-d-eau-du-lac-bleu-saint-remy-de-maurienne","name":"Plan d'Eau du Lac Bleu","city":"Saint-Remy-de-Maurienne","department":"Savoie","type":"Lac","score":125,"comfort":true,"wheelchair":true,"lifeguard":true,"dogs":true}},{"type":"Feature","geometry":{"type":"Point","coordinates":[5.89317902645,45.66901478027]},"properties":{"slug":"plage-du-lido-tresserve","name":"Plage du Lido","city":"Tresserve","department":"Savoie","type":"Lac","score":125,"comfort":true,"wheelchair":true,"lifeguard":true,"dogs":true}},{"type":"Feature","geometry":{"type":"Point","coordinates":[6.86548382042,48.07026141323]},"properties":{"slug":"base-de-l-union-nautique-gerardmer","name":"Base de l'Union Nautique","city":"Gerardmer","department":"Vosges","type":"Lac","score":125,"comfort":true,"wheelchair":true,"lifeguard":true,"dogs":false}},{"type":"Feature","geometry":{"type":"Point","coordinates":[3.24849703079,50.37887891208]},"properties":{"slug":"les-argales-rieulay","name":"Les Argales","city":"Rieulay","department":"Nord","type":"Lac","score":125,"comfort":false,"wheelchair":true,"lifeguard":true,"dogs":true}},{"type":"Feature","geometry":{"type":"Point","coordinates":[-4.61755639379,48.33793260963]},"properties":{"slug":"minou-plouzane","name":"Minou","city":"Plouzane","department":"Finistère","type":"Eau côtière","score":125,"comfort":false,"wheelchair":false,"lifeguard":true,"dogs":false}},{"type":"Feature","geometry":{"type":"Point","coordinates":[4.9363911226,45.80242391098]},"properties":{"slug":"miribel-plage-du-morlet-vaulx-en-velin","name":"Miribel-Plage du Morlet","city":"Vaulx-en-Velin","department":"Rhône","type":"Lac","score":120,"comfort":false,"wheelchair":false,"lifeguard":true,"dogs":false}},{"type":"Feature","geometry":{"type":"Point","coordinates":[5.88916284584,45.70729699953]},"properties":{"slug":"plage-memard-aix-les-bains","name":"Plage Memard","city":"Aix-les-Bains","department":"Savoie","type":"Lac","score":120,"comfort":false,"wheelchair":true,"lifeguard":true,"dogs":true}},{"type":"Feature","geometry":{"type":"Point","coordinates":[-2.4738433065,48.62595986425]},"properties":{"slug":"caroual-nord-erquy","name":"Caroual Nord","city":"Erquy","department":"Côtes-d'Armor","type":"Eau côtière","score":120,"comfort":true,"wheelchair":true,"lifeguard":true,"dogs":false}},{"type":"Feature","geometry":{"type":"Point","coordinates":[-3.43214826517,48.81924527837]},"properties":{"slug":"trestrignel-perros-guirec","name":"Trestrignel","city":"Perros-Guirec","department":"Côtes-d'Armor","type":"Eau côtière","score":120,"comfort":true,"wheelchair":true,"lifeguard":true,"dogs":true}},{"type":"Feature","geometry":{"type":"Point","coordinates":[-3.45594306738,48.81620045838]},"properties":{"slug":"trestraou-perros-guirec","name":"Trestraou","city":"Perros-Guirec","department":"Côtes-d'Armor","type":"Eau côtière","score":120,"comfort":true,"wheelchair":true,"lifeguard":true,"dogs":true}},{"type":"Feature","geometry":{"type":"Point","coordinates":[-2.77988697827,47.62917462978]},"properties":{"slug":"bassin-de-conleau-vannes","name":"Bassin de Conleau","city":"Vannes","department":"Morbihan","type":"Eau côtière","score":120,"comfort":true,"wheelchair":true,"lifeguard":true,"dogs":false}},{"type":"Feature","geometry":{"type":"Point","coordinates":[2.51540283446,51.08043945355]},"properties":{"slug":"poste-de-secours-central-de-bray-dunes-bray-dunes","name":"Poste de Secours Central de Bray-Dunes","city":"Bray-Dunes","department":"Nord","type":"Eau côtière","score":120,"comfort":true,"wheelchair":true,"lifeguard":true,"dogs":true}},{"type":"Feature","geometry":{"type":"Point","coordinates":[1.38388484752,50.06786359496]},"properties":{"slug":"plage-surveillee-de-mers-les-bains-mers-les-bains","name":"Plage Surveillee de Mers les Bains","city":"Mers-les-Bains","department":"Somme","type":"Eau côtière","score":120,"comfort":true,"wheelchair":true,"lifeguard":true,"dogs":true}},{"type":"Feature","geometry":{"type":"Point","coordinates":[2.37413782053,48.88538529503]},"properties":{"slug":"bassin-de-la-villette-paris","name":"Bassin de la Villette","city":"Paris","department":"Paris","type":"Rivière","score":120,"comfort":true,"wheelchair":true,"lifeguard":true,"dogs":false}},{"type":"Feature","geometry":{"type":"Point","coordinates":[-1.08755968683,45.64115107857]},"properties":{"slug":"plage-du-bureau-saint-palais-sur-mer","name":"Plage du Bureau","city":"Saint-Palais-sur-Mer","department":"Charente-Maritime","type":"Eau côtière","score":120,"comfort":true,"wheelchair":true,"lifeguard":true,"dogs":false}},{"type":"Feature","geometry":{"type":"Point","coordinates":[-1.44569842132,43.65108623176]},"properties":{"slug":"plage-centrale-capbreton","name":"Plage Centrale","city":"Capbreton","department":"Landes","type":"Eau côtière","score":120,"comfort":true,"wheelchair":true,"lifeguard":true,"dogs":true}},{"type":"Feature","geometry":{"type":"Point","coordinates":[3.67289268994,43.39232085191]},"properties":{"slug":"plage-du-lazaret-sete","name":"Plage du Lazaret","city":"Sete","department":"Hérault","type":"Eau côtière","score":120,"comfort":true,"wheelchair":true,"lifeguard":true,"dogs":false}},{"type":"Feature","geometry":{"type":"Point","coordinates":[3.13049044092,42.48212995769]},"properties":{"slug":"centrale-banyuls-sur-mer","name":"Centrale","city":"Banyuls-sur-Mer","department":"Pyrénées-Orientales","type":"Eau côtière","score":120,"comfort":true,"wheelchair":true,"lifeguard":true,"dogs":true}},{"type":"Feature","geometry":{"type":"Point","coordinates":[-2.15952525972,47.20755851383]},"properties":{"slug":"plage-de-l-ermitage-saint-brevin-les-pins","name":"Plage de l'Ermitage","city":"Saint-Brevin-les-Pins","department":"Loire-Atlantique","type":"Eau côtière","score":120,"comfort":true,"wheelchair":true,"lifeguard":true,"dogs":true}},{"type":"Feature","geometry":{"type":"Point","coordinates":[-1.57281722127,46.407001953]},"properties":{"slug":"boisvinet-jard-sur-mer","name":"Boisvinet","city":"Jard-sur-Mer","department":"Vendée","type":"Eau côtière","score":120,"comfort":true,"wheelchair":true,"lifeguard":true,"dogs":false}},{"type":"Feature","geometry":{"type":"Point","coordinates":[6.47675028827,44.55046830284]},"properties":{"slug":"plan-d-eau-plage-nord-embrun","name":"Plan d'Eau Plage (Nord)","city":"Embrun","department":"Hautes-Alpes","type":"Lac","score":120,"comfort":false,"wheelchair":false,"lifeguard":true,"dogs":true}},{"type":"Feature","geometry":{"type":"Point","coordinates":[7.01000617974,43.54815203496]},"properties":{"slug":"midi-cannes","name":"Midi","city":"Cannes","department":"Alpes-Maritimes","type":"Eau côtière","score":120,"comfort":true,"wheelchair":true,"lifeguard":true,"dogs":true}},{"type":"Feature","geometry":{"type":"Point","coordinates":[5.50394823871,43.75944459304]},"properties":{"slug":"etang-de-la-bonde-cabrieres-d-aigues","name":"Etang de la Bonde","city":"Cabrieres-d'Aigues","department":"Vaucluse","type":"Lac","score":120,"comfort":false,"wheelchair":false,"lifeguard":true,"dogs":false}},{"type":"Feature","geometry":{"type":"Point","coordinates":[-4.56975886337,48.59689790646]},"properties":{"slug":"anges-landeda","name":"Anges","city":"Landeda","department":"Finistère","type":"Eau côtière","score":120,"comfort":false,"wheelchair":true,"lifeguard":true,"dogs":false}},{"type":"Feature","geometry":{"type":"Point","coordinates":[-3.13558611776,47.55188553889]},"properties":{"slug":"penthievre-ocean-saint-pierre-quiberon","name":"Penthievre Ocean","city":"Saint-Pierre-Quiberon","department":"Morbihan","type":"Eau côtière","score":115,"comfort":false,"wheelchair":true,"lifeguard":true,"dogs":false}},{"type":"Feature","geometry":{"type":"Point","coordinates":[-2.77784940391,47.62786768604]},"properties":{"slug":"plage-de-conleau-vannes","name":"Plage de Conleau","city":"Vannes","department":"Morbihan","type":"Eau côtière","score":115,"comfort":true,"wheelchair":false,"lifeguard":true,"dogs":false}},{"type":"Feature","geometry":{"type":"Point","coordinates":[2.43699301358,51.05935884538]},"properties":{"slug":"poste-de-surveillance-de-leffrinckoucke-leffrinckoucke","name":"Poste de Surveillance de Leffrinckoucke","city":"Leffrinckoucke","department":"Nord","type":"Eau côtière","score":115,"comfort":true,"wheelchair":false,"lifeguard":true,"dogs":true}},{"type":"Feature","geometry":{"type":"Point","coordinates":[1.57610322533,50.57516357096]},"properties":{"slug":"camiers-sainte-cecile-camiers","name":"Camiers Sainte Cecile","city":"Camiers","department":"Pas-de-Calais","type":"Eau côtière","score":115,"comfort":false,"wheelchair":true,"lifeguard":true,"dogs":true}},{"type":"Feature","geometry":{"type":"Point","coordinates":[1.60574329815,50.7669406593]},"properties":{"slug":"wimereux-centre-plage-wimereux","name":"Wimereux Centre Plage","city":"Wimereux","department":"Pas-de-Calais","type":"Eau côtière","score":115,"comfort":true,"wheelchair":false,"lifeguard":true,"dogs":true}},{"type":"Feature","geometry":{"type":"Point","coordinates":[1.31480099404,50.03459317142]},"properties":{"slug":"criel-plage-criel-sur-mer","name":"Criel-Plage","city":"Criel-sur-Mer","department":"Seine-Maritime","type":"Eau côtière","score":115,"comfort":true,"wheelchair":false,"lifeguard":true,"dogs":true}},{"type":"Feature","geometry":{"type":"Point","coordinates":[0.52396686758,49.82625745854]},"properties":{"slug":"les-petites-dalles-saint-martin-aux-buneaux","name":"Les Petites-Dalles","city":"Saint-Martin-aux-Buneaux","department":"Seine-Maritime","type":"Eau côtière","score":115,"comfort":true,"wheelchair":false,"lifeguard":true,"dogs":true}},{"type":"Feature","geometry":{"type":"Point","coordinates":[-1.21828137931,45.81111444262]},"properties":{"slug":"plage-de-gatseau-saint-trojan-les-bains","name":"Plage de Gatseau","city":"Saint-Trojan-les-Bains","department":"Charente-Maritime","type":"Eau côtière","score":115,"comfort":false,"wheelchair":true,"lifeguard":true,"dogs":true}},{"type":"Feature","geometry":{"type":"Point","coordinates":[-1.44565293457,43.65657655256]},"properties":{"slug":"notre-dame-capbreton","name":"Notre Dame","city":"Capbreton","department":"Landes","type":"Eau côtière","score":115,"comfort":true,"wheelchair":false,"lifeguard":true,"dogs":true}},{"type":"Feature","geometry":{"type":"Point","coordinates":[-1.44987708778,43.63713546597]},"properties":{"slug":"oceanides-capbreton","name":"Oceanides","city":"Capbreton","department":"Landes","type":"Eau côtière","score":115,"comfort":true,"wheelchair":false,"lifeguard":true,"dogs":true}},{"type":"Feature","geometry":{"type":"Point","coordinates":[-1.43134241696,43.6647765009]},"properties":{"slug":"chenes-lieges-lac-marin-soorts-hossegor","name":"Chenes-Lieges (Lac Marin)","city":"Soorts-Hossegor","department":"Landes","type":"Eau côtière","score":115,"comfort":false,"wheelchair":true,"lifeguard":true,"dogs":true}},{"type":"Feature","geometry":{"type":"Point","coordinates":[-1.52561699692,43.5269664253]},"properties":{"slug":"la-barre-anglet","name":"La Barre","city":"Anglet","department":"Pyrénées-Atlantiques","type":"Eau côtière","score":115,"comfort":true,"wheelchair":false,"lifeguard":true,"dogs":false}},{"type":"Feature","geometry":{"type":"Point","coordinates":[3.51193675786,43.27444417572]},"properties":{"slug":"la-plagette-agde","name":"La Plagette","city":"Agde","department":"Hérault","type":"Eau côtière","score":115,"comfort":true,"wheelchair":false,"lifeguard":true,"dogs":true}},{"type":"Feature","geometry":{"type":"Point","coordinates":[3.60755253629,43.42226123722]},"properties":{"slug":"etang-de-thau-la-plagette-meze","name":"Etang de Thau - la Plagette","city":"Meze","department":"Hérault","type":"Eau côtière","score":115,"comfort":true,"wheelchair":false,"lifeguard":true,"dogs":false}},{"type":"Feature","geometry":{"type":"Point","coordinates":[3.6029430772,43.42055961337]},"properties":{"slug":"etang-de-thau-village-vacances-meze","name":"Etang de Thau - Village Vacances","city":"Meze","department":"Hérault","type":"Eau côtière","score":115,"comfort":true,"wheelchair":false,"lifeguard":true,"dogs":false}},{"type":"Feature","geometry":{"type":"Point","coordinates":[7.12507796118,43.57336123019]},"properties":{"slug":"le-ponteil-antibes","name":"Le Ponteil","city":"Antibes","department":"Alpes-Maritimes","type":"Eau côtière","score":115,"comfort":true,"wheelchair":true,"lifeguard":true,"dogs":true}},{"type":"Feature","geometry":{"type":"Point","coordinates":[7.03773462464,43.52275399925]},"properties":{"slug":"ile-ste-marguerite-ouest-cannes","name":"Ile Ste Marguerite Ouest","city":"Cannes","department":"Alpes-Maritimes","type":"Eau côtière","score":115,"comfort":true,"wheelchair":false,"lifeguard":true,"dogs":true}},{"type":"Feature","geometry":{"type":"Point","coordinates":[5.37161430372,43.26159353974]},"properties":{"slug":"david-prado-sud-marseille","name":"David (Prado Sud)","city":"Marseille","department":"Bouches-du-Rhône","type":"Eau côtière","score":115,"comfort":true,"wheelchair":false,"lifeguard":true,"dogs":false}},{"type":"Feature","geometry":{"type":"Point","coordinates":[-4.55365661586,48.36097293294]},"properties":{"slug":"sainte-anne-du-portzic-brest","name":"Sainte-Anne-du-Portzic","city":"Brest","department":"Finistère","type":"Eau côtière","score":115,"comfort":false,"wheelchair":true,"lifeguard":true,"dogs":false}},{"type":"Feature","geometry":{"type":"Point","coordinates":[-1.15845656348,45.36234724505]},"properties":{"slug":"centre-helio-marin-vendays-montalivet","name":"Centre Helio Marin","city":"Vendays-Montalivet","department":"Gironde","type":"Eau côtière","score":115,"comfort":false,"wheelchair":false,"lifeguard":true,"dogs":true}},{"type":"Feature","geometry":{"type":"Point","coordinates":[2.98395867982,45.66689087422]},"properties":{"slug":"lac-d-aydat-aydat","name":"Lac d'Aydat","city":"Aydat","department":"Puy-de-Dôme","type":"Lac","score":110,"comfort":true,"wheelchair":true,"lifeguard":true,"dogs":false}},{"type":"Feature","geometry":{"type":"Point","coordinates":[6.69228075785,45.56372671229]},"properties":{"slug":"plan-d-eau-base-de-loisirs-des-iles-plagne-tarentaise-la","name":"Plan d'Eau Base de Loisirs des Iles","city":"Plagne Tarentaise (La)","department":"Savoie","type":"Lac","score":110,"comfort":true,"wheelchair":true,"lifeguard":true,"dogs":true}},{"type":"Feature","geometry":{"type":"Point","coordinates":[6.48303041221,46.38791715839]},"properties":{"slug":"thonon-centre-nautique-thonon-les-bains","name":"Thonon  Centre Nautique","city":"Thonon-les-Bains","department":"Haute-Savoie","type":"Lac","score":110,"comfort":true,"wheelchair":true,"lifeguard":true,"dogs":false}},{"type":"Feature","geometry":{"type":"Point","coordinates":[-2.36396481118,48.65513725383]},"properties":{"slug":"vieux-bourg-parking-frehel","name":"Vieux Bourg Parking","city":"Frehel","department":"Côtes-d'Armor","type":"Eau côtière","score":110,"comfort":false,"wheelchair":true,"lifeguard":true,"dogs":false}},{"type":"Feature","geometry":{"type":"Point","coordinates":[2.425257544,51.05640869931]},"properties":{"slug":"poste-de-secours-malo-terminus-dunkerque","name":"Poste de Secours - Malo Terminus","city":"Dunkerque","department":"Nord","type":"Eau côtière","score":110,"comfort":true,"wheelchair":false,"lifeguard":true,"dogs":true}},{"type":"Feature","geometry":{"type":"Point","coordinates":[-1.56779352503,43.48249803241]},"properties":{"slug":"port-vieux-biarritz","name":"Port Vieux","city":"Biarritz","department":"Pyrénées-Atlantiques","type":"Eau côtière","score":110,"comfort":true,"wheelchair":false,"lifeguard":true,"dogs":false}},{"type":"Feature","geometry":{"type":"Point","coordinates":[-1.43454337633,46.34170990146]},"properties":{"slug":"la-grande-plage-tranche-sur-mer-la","name":"La Grande Plage","city":"Tranche-sur-Mer (La)","department":"Vendée","type":"Eau côtière","score":110,"comfort":false,"wheelchair":false,"lifeguard":true,"dogs":false}},{"type":"Feature","geometry":{"type":"Point","coordinates":[6.95119348097,43.50561034326]},"properties":{"slug":"pointe-de-l-aiguille-theoule-sur-mer","name":"Pointe de l'Aiguille","city":"Theoule-sur-Mer","department":"Alpes-Maritimes","type":"Eau côtière","score":110,"comfort":true,"wheelchair":false,"lifeguard":true,"dogs":true}},{"type":"Feature","geometry":{"type":"Point","coordinates":[4.42792189388,43.44909666935]},"properties":{"slug":"les-arenes-saintes-maries-de-la-mer","name":"Les Arenes","city":"Saintes-Maries-de-la-Mer","department":"Bouches-du-Rhône","type":"Eau côtière","score":110,"comfort":true,"wheelchair":false,"lifeguard":true,"dogs":false}},{"type":"Feature","geometry":{"type":"Point","coordinates":[6.11072802702,45.70829029399]},"properties":{"slug":"plan-d-eau-du-petit-lac-nord-lescheraines","name":"Plan d'Eau du Petit Lac Nord","city":"Lescheraines","department":"Savoie","type":"Lac","score":105,"comfort":true,"wheelchair":false,"lifeguard":true,"dogs":true}},{"type":"Feature","geometry":{"type":"Point","coordinates":[5.79688517271,45.57202700619]},"properties":{"slug":"plage-du-camping-de-l-ambroisiere-nances","name":"Plage du Camping de l'Ambroisiere","city":"Nances","department":"Savoie","type":"Lac","score":105,"comfort":true,"wheelchair":false,"lifeguard":true,"dogs":true}},{"type":"Feature","geometry":{"type":"Point","coordinates":[5.80051819128,45.57334215671]},"properties":{"slug":"plage-de-la-crique-nances","name":"Plage de la Crique","city":"Nances","department":"Savoie","type":"Lac","score":105,"comfort":false,"wheelchair":true,"lifeguard":true,"dogs":false}},{"type":"Feature","geometry":{"type":"Point","coordinates":[2.79862577313,46.73416921803]},"properties":{"slug":"etang-de-goule-bessais-le-fromental","name":"Etang de Goule","city":"Bessais-le-Fromental","department":"Cher","type":"Lac","score":105,"comfort":true,"wheelchair":false,"lifeguard":true,"dogs":true}},{"type":"Feature","geometry":{"type":"Point","coordinates":[0.14955232012,45.68328750347]},"properties":{"slug":"la-grande-prairie-saint-yrieix-sur-charente","name":"La Grande Prairie","city":"Saint-Yrieix-sur-Charente","department":"Charente","type":"Lac","score":105,"comfort":true,"wheelchair":false,"lifeguard":true,"dogs":true}},{"type":"Feature","geometry":{"type":"Point","coordinates":[3.38630449996,43.64662588792]},"properties":{"slug":"lac-du-salagou-plage-du-camping-clermont-l-herault","name":"Lac du Salagou-Plage du Camping","city":"Clermont-l'Herault","department":"Hérault","type":"Lac","score":105,"comfort":true,"wheelchair":false,"lifeguard":true,"dogs":false}},{"type":"Feature","geometry":{"type":"Point","coordinates":[-1.37150763101,46.03353545009]},"properties":{"slug":"plage-de-la-boirie-l-ancien-port-saint-denis-d-oleron","name":"Plage de la Boirie - l'Ancien Port","city":"Saint-Denis-d'Oleron","department":"Charente-Maritime","type":"Eau côtière","score":105,"comfort":false,"wheelchair":false,"lifeguard":true,"dogs":true}},{"type":"Feature","geometry":{"type":"Point","coordinates":[-1.09817737007,45.64288367162]},"properties":{"slug":"plage-du-platin-saint-palais-sur-mer","name":"Plage du Platin","city":"Saint-Palais-sur-Mer","department":"Charente-Maritime","type":"Eau côtière","score":105,"comfort":false,"wheelchair":false,"lifeguard":true,"dogs":false}},{"type":"Feature","geometry":{"type":"Point","coordinates":[2.70211849024,44.09754253622]},"properties":{"slug":"v-v-f-granouillac-villefranche-de-panat","name":"V.v.f Granouillac","city":"Villefranche-de-Panat","department":"Aveyron","type":"Lac","score":105,"comfort":false,"wheelchair":false,"lifeguard":true,"dogs":true}},{"type":"Feature","geometry":{"type":"Point","coordinates":[2.6986058483,44.09341972294]},"properties":{"slug":"le-mayrac-villefranche-de-panat","name":"Le Mayrac","city":"Villefranche-de-Panat","department":"Aveyron","type":"Lac","score":105,"comfort":false,"wheelchair":false,"lifeguard":true,"dogs":true}},{"type":"Feature","geometry":{"type":"Point","coordinates":[3.62015120178,43.36808434646]},"properties":{"slug":"plage-des-trois-digues-sete","name":"Plage des Trois Digues","city":"Sete","department":"Hérault","type":"Eau côtière","score":105,"comfort":false,"wheelchair":false,"lifeguard":true,"dogs":false}},{"type":"Feature","geometry":{"type":"Point","coordinates":[7.15768130385,43.65370424017]},"properties":{"slug":"mogador-cagnes-sur-mer","name":"Mogador","city":"Cagnes-sur-Mer","department":"Alpes-Maritimes","type":"Eau côtière","score":105,"comfort":false,"wheelchair":false,"lifeguard":true,"dogs":false}},{"type":"Feature","geometry":{"type":"Point","coordinates":[5.94247707615,43.10675360928]},"properties":{"slug":"anse-mistral-toulon","name":"Anse Mistral","city":"Toulon","department":"Var","type":"Eau côtière","score":105,"comfort":true,"wheelchair":false,"lifeguard":true,"dogs":false}},{"type":"Feature","geometry":{"type":"Point","coordinates":[5.94872948746,43.10747368894]},"properties":{"slug":"plage-les-pins-centre-toulon","name":"Plage les Pins Centre","city":"Toulon","department":"Var","type":"Eau côtière","score":105,"comfort":true,"wheelchair":false,"lifeguard":true,"dogs":false}},{"type":"Feature","geometry":{"type":"Point","coordinates":[7.33120785259,43.70331070779]},"properties":{"slug":"fourmis-beaulieu-sur-mer","name":"Fourmis","city":"Beaulieu-sur-Mer","department":"Alpes-Maritimes","type":"Eau côtière","score":105,"comfort":true,"wheelchair":false,"lifeguard":true,"dogs":false}},{"type":"Feature","geometry":{"type":"Point","coordinates":[5.71341983596,46.15129372272]},"properties":{"slug":"plan-d-eau-de-le-poizat-lalleyriat-poizat-lalleyriat-le","name":"Plan d'Eau de le Poizat - Lalleyriat","city":"Poizat-Lalleyriat (Le)","department":"Ain","type":"Lac","score":100,"comfort":true,"wheelchair":true,"lifeguard":true,"dogs":false}},{"type":"Feature","geometry":{"type":"Point","coordinates":[5.36731222065,44.46442552378]},"properties":{"slug":"lac-du-pas-des-ondes-motte-chalancon-la","name":"Lac du Pas des Ondes","city":"Motte-Chalancon (La)","department":"Drôme","type":"Lac","score":100,"comfort":true,"wheelchair":true,"lifeguard":true,"dogs":true}},{"type":"Feature","geometry":{"type":"Point","coordinates":[5.55610789562,45.46753063139]},"properties":{"slug":"montferrat-lac-de-paladru-montferrat","name":"Montferrat - Lac de Paladru","city":"Montferrat","department":"Isère","type":"Lac","score":100,"comfort":true,"wheelchair":true,"lifeguard":true,"dogs":false}},{"type":"Feature","geometry":{"type":"Point","coordinates":[5.55140969748,45.47284497967]},"properties":{"slug":"paladru-lac-de-paladru-villages-du-lac-de-paladru","name":"Paladru - Lac de Paladru","city":"Villages-du-Lac-de-Paladru","department":"Isère","type":"Lac","score":100,"comfort":true,"wheelchair":true,"lifeguard":true,"dogs":false}},{"type":"Feature","geometry":{"type":"Point","coordinates":[5.64028532161,45.58071631545]},"properties":{"slug":"romagnieu-lac-de-romagnieu-romagnieu","name":"Romagnieu - Lac de Romagnieu","city":"Romagnieu","department":"Isère","type":"Lac","score":100,"comfort":true,"wheelchair":true,"lifeguard":true,"dogs":true}},{"type":"Feature","geometry":{"type":"Point","coordinates":[3.21700781789,45.74394488529]},"properties":{"slug":"boire-de-cournon-cournon-d-auvergne","name":"Boire de Cournon","city":"Cournon-d'Auvergne","department":"Puy-de-Dôme","type":"Lac","score":100,"comfort":true,"wheelchair":true,"lifeguard":true,"dogs":true}},{"type":"Feature","geometry":{"type":"Point","coordinates":[2.68571822578,45.53422637242]},"properties":{"slug":"plan-d-eau-de-la-tour-d-auvergne-tour-d-auvergne-la","name":"Plan d'Eau de  la Tour d'Auvergne","city":"Tour-d'Auvergne (La)","department":"Puy-de-Dôme","type":"Lac","score":100,"comfort":true,"wheelchair":true,"lifeguard":true,"dogs":false}},{"type":"Feature","geometry":{"type":"Point","coordinates":[2.92882052748,45.56833908621]},"properties":{"slug":"lac-chambon-plage-est-murol","name":"Lac Chambon : Plage Est","city":"Murol","department":"Puy-de-Dôme","type":"Lac","score":100,"comfort":true,"wheelchair":true,"lifeguard":true,"dogs":true}},{"type":"Feature","geometry":{"type":"Point","coordinates":[3.91608032017,45.52385294998]},"properties":{"slug":"plan-d-eau-de-st-antheme-saint-antheme","name":"Plan d'Eau de St Antheme","city":"Saint-Antheme","department":"Puy-de-Dôme","type":"Lac","score":100,"comfort":true,"wheelchair":true,"lifeguard":true,"dogs":true}},{"type":"Feature","geometry":{"type":"Point","coordinates":[3.48219360982,45.86750986115]},"properties":{"slug":"plan-d-eau-d-iloa-thiers","name":"Plan d'Eau d'Iloa","city":"Thiers","department":"Puy-de-Dôme","type":"Lac","score":100,"comfort":true,"wheelchair":true,"lifeguard":true,"dogs":false}},{"type":"Feature","geometry":{"type":"Point","coordinates":[4.3747790492,46.00922192305]},"properties":{"slug":"lac-des-sapins-baignade-point-sud-cublize","name":"Lac des Sapins-Baignade Point Sud","city":"Cublize","department":"Rhône","type":"Lac","score":100,"comfort":true,"wheelchair":true,"lifeguard":true,"dogs":false}},{"type":"Feature","geometry":{"type":"Point","coordinates":[5.81231054149,45.54404305346]},"properties":{"slug":"plage-municipale-du-port-d-aiguebelette-aiguebelette-le-lac","name":"Plage Municipale du Port d'Aiguebelette","city":"Aiguebelette-le-Lac","department":"Savoie","type":"Lac","score":100,"comfort":true,"wheelchair":true,"lifeguard":true,"dogs":true}},{"type":"Feature","geometry":{"type":"Point","coordinates":[5.88093395458,45.72067260224]},"properties":{"slug":"plage-municipale-de-la-base-de-loisirs-de-brison-brison-saint-innocent","name":"Plage Municipale de la Base de Loisirs de Brison","city":"Brison-Saint-Innocent","department":"Savoie","type":"Lac","score":100,"comfort":true,"wheelchair":true,"lifeguard":true,"dogs":false}},{"type":"Feature","geometry":{"type":"Point","coordinates":[5.79528760048,45.56782285996]},"properties":{"slug":"plage-pre-d-argent-novalaise","name":"Plage Pre d'Argent","city":"Novalaise","department":"Savoie","type":"Lac","score":100,"comfort":true,"wheelchair":true,"lifeguard":true,"dogs":true}},{"type":"Feature","geometry":{"type":"Point","coordinates":[6.38780309596,45.25461763753]},"properties":{"slug":"plan-d-eau-des-oudins-villargondran","name":"Plan d'Eau des Oudins","city":"Villargondran","department":"Savoie","type":"Lac","score":100,"comfort":true,"wheelchair":true,"lifeguard":true,"dogs":true}},{"type":"Feature","geometry":{"type":"Point","coordinates":[6.14322985878,45.90238154932]},"properties":{"slug":"annecy-imperial-annecy","name":"Annecy  Imperial","city":"Annecy","department":"Haute-Savoie","type":"Lac","score":100,"comfort":true,"wheelchair":true,"lifeguard":true,"dogs":true}},{"type":"Feature","geometry":{"type":"Point","coordinates":[6.1475444107,45.90424415519]},"properties":{"slug":"annecy-le-vieux-albigny-annecy","name":"Annecy-le-Vieux  Albigny","city":"Annecy","department":"Haute-Savoie","type":"Lac","score":100,"comfort":true,"wheelchair":true,"lifeguard":true,"dogs":false}},{"type":"Feature","geometry":{"type":"Point","coordinates":[6.13731819927,45.89286684431]},"properties":{"slug":"annecy-les-marquisats-annecy","name":"Annecy  les Marquisats","city":"Annecy","department":"Haute-Savoie","type":"Lac","score":100,"comfort":true,"wheelchair":true,"lifeguard":true,"dogs":false}},{"type":"Feature","geometry":{"type":"Point","coordinates":[6.21872657883,45.79311758763]},"properties":{"slug":"doussard-municipale-doussard","name":"Doussard  Municipale","city":"Doussard","department":"Haute-Savoie","type":"Lac","score":100,"comfort":true,"wheelchair":true,"lifeguard":true,"dogs":false}},{"type":"Feature","geometry":{"type":"Point","coordinates":[6.58118570185,46.40071424732]},"properties":{"slug":"evian-centre-nautique-evian-les-bains","name":"Evian  Centre Nautique","city":"Evian-les-Bains","department":"Haute-Savoie","type":"Lac","score":100,"comfort":true,"wheelchair":true,"lifeguard":true,"dogs":false}},{"type":"Feature","geometry":{"type":"Point","coordinates":[6.18603665096,45.86334968167]},"properties":{"slug":"menthon-municipale-menthon-saint-bernard","name":"Menthon  Municipale","city":"Menthon-Saint-Bernard","department":"Haute-Savoie","type":"Lac","score":100,"comfort":true,"wheelchair":true,"lifeguard":true,"dogs":false}},{"type":"Feature","geometry":{"type":"Point","coordinates":[6.65484424754,45.92413441988]},"properties":{"slug":"passy-cavettaz-passy","name":"Passy  Cavettaz","city":"Passy","department":"Haute-Savoie","type":"Lac","score":100,"comfort":true,"wheelchair":true,"lifeguard":true,"dogs":true}},{"type":"Feature","geometry":{"type":"Point","coordinates":[6.53455168279,46.39785133637]},"properties":{"slug":"publier-municipale-publier","name":"Publier  Municipale","city":"Publier","department":"Haute-Savoie","type":"Lac","score":100,"comfort":true,"wheelchair":true,"lifeguard":true,"dogs":false}},{"type":"Feature","geometry":{"type":"Point","coordinates":[6.79377606681,46.39272269213]},"properties":{"slug":"saint-gingolph-municipale-saint-gingolph","name":"Saint-Gingolph  Municipale","city":"Saint-Gingolph","department":"Haute-Savoie","type":"Lac","score":100,"comfort":true,"wheelchair":true,"lifeguard":true,"dogs":false}},{"type":"Feature","geometry":{"type":"Point","coordinates":[6.65542264458,46.36794483383]},"properties":{"slug":"saint-paul-municipale-saint-paul-en-chablais","name":"Saint-Paul  Municipale","city":"Saint-Paul-en-Chablais","department":"Haute-Savoie","type":"Lac","score":100,"comfort":true,"wheelchair":true,"lifeguard":true,"dogs":true}},{"type":"Feature","geometry":{"type":"Point","coordinates":[6.14441830687,45.86258725273]},"properties":{"slug":"sevrier-municipale-sevrier","name":"Sevrier  Municipale","city":"Sevrier","department":"Haute-Savoie","type":"Lac","score":100,"comfort":true,"wheelchair":true,"lifeguard":true,"dogs":false}},{"type":"Feature","geometry":{"type":"Point","coordinates":[6.17461474817,45.87937952846]},"properties":{"slug":"veyrier-la-brune-veyrier-du-lac","name":"Veyrier  la Brune","city":"Veyrier-du-Lac","department":"Haute-Savoie","type":"Lac","score":100,"comfort":true,"wheelchair":true,"lifeguard":true,"dogs":true}},{"type":"Feature","geometry":{"type":"Point","coordinates":[4.49798653378,47.13285227302]},"properties":{"slug":"etang-fouche-arnay-le-duc","name":"Etang Fouche","city":"Arnay-le-Duc","department":"Côte-d'Or","type":"Lac","score":100,"comfort":true,"wheelchair":true,"lifeguard":true,"dogs":true}},{"type":"Feature","geometry":{"type":"Point","coordinates":[-1.99686876411,48.3792931501]},"properties":{"slug":"etang-de-betineuc-saint-andre-des-eaux","name":"Etang de Betineuc","city":"Saint-Andre-des-Eaux","department":"Côtes-d'Armor","type":"Lac","score":100,"comfort":true,"wheelchair":true,"lifeguard":true,"dogs":false}},{"type":"Feature","geometry":{"type":"Point","coordinates":[-2.03068638343,48.10017844293]},"properties":{"slug":"lac-de-tremelin-iffendic","name":"Lac de Tremelin","city":"Iffendic","department":"Ille-et-Vilaine","type":"Lac","score":100,"comfort":true,"wheelchair":true,"lifeguard":true,"dogs":true}},{"type":"Feature","geometry":{"type":"Point","coordinates":[-1.17495040999,48.39330749429]},"properties":{"slug":"le-chenedet-landean","name":"Le Chenedet","city":"Landean","department":"Ille-et-Vilaine","type":"Lac","score":100,"comfort":true,"wheelchair":true,"lifeguard":true,"dogs":true}},{"type":"Feature","geometry":{"type":"Point","coordinates":[0.31528095574,47.54345495437]},"properties":{"slug":"le-val-joyeux-chateau-la-valliere","name":"Le Val Joyeux","city":"Chateau-la-Valliere","department":"Indre-et-Loire","type":"Lac","score":100,"comfort":true,"wheelchair":true,"lifeguard":true,"dogs":false}},{"type":"Feature","geometry":{"type":"Point","coordinates":[4.52290942014,48.34429510784]},"properties":{"slug":"dienville-dienville","name":"Dienville","city":"Dienville","department":"Aube","type":"Lac","score":100,"comfort":true,"wheelchair":true,"lifeguard":true,"dogs":false}},{"type":"Feature","geometry":{"type":"Point","coordinates":[4.33450583197,48.30144977357]},"properties":{"slug":"geraudot-geraudot","name":"Geraudot","city":"Geraudot","department":"Aube","type":"Lac","score":100,"comfort":true,"wheelchair":true,"lifeguard":true,"dogs":false}},{"type":"Feature","geometry":{"type":"Point","coordinates":[7.51376987211,48.98123767597]},"properties":{"slug":"etang-de-la-base-de-plein-air-du-ramstein-baerenthal","name":"Etang de la Base de Plein Air du Ramstein","city":"Baerenthal","department":"Moselle","type":"Lac","score":100,"comfort":true,"wheelchair":true,"lifeguard":true,"dogs":false}},{"type":"Feature","geometry":{"type":"Point","coordinates":[7.44264326931,49.0396077131]},"properties":{"slug":"etang-de-hasselfurth-bitche","name":"Etang de Hasselfurth","city":"Bitche","department":"Moselle","type":"Lac","score":100,"comfort":true,"wheelchair":true,"lifeguard":true,"dogs":true}},{"type":"Feature","geometry":{"type":"Point","coordinates":[7.71315844353,48.39002587697]},"properties":{"slug":"baignade-l-etang-de-gerstheim-gerstheim","name":"Baignade l'Etang de Gerstheim","city":"Gerstheim","department":"Bas-Rhin","type":"Lac","score":100,"comfort":true,"wheelchair":true,"lifeguard":true,"dogs":false}},{"type":"Feature","geometry":{"type":"Point","coordinates":[7.74702816963,48.54303791915]},"properties":{"slug":"le-baggersee-illkirch-illkirch-graffenstaden","name":"Le Baggersee Illkirch","city":"Illkirch-Graffenstaden","department":"Bas-Rhin","type":"Lac","score":100,"comfort":true,"wheelchair":true,"lifeguard":true,"dogs":true}},{"type":"Feature","geometry":{"type":"Point","coordinates":[7.7003979146,48.53035665497]},"properties":{"slug":"lac-achard-illkirch-illkirch-graffenstaden","name":"Lac Achard Illkirch","city":"Illkirch-Graffenstaden","department":"Bas-Rhin","type":"Lac","score":100,"comfort":true,"wheelchair":true,"lifeguard":true,"dogs":true}},{"type":"Feature","geometry":{"type":"Point","coordinates":[8.17358359231,48.9658841452]},"properties":{"slug":"baignade-municipale-les-mouettes-lauterbourg-lauterbourg","name":"Baignade Municipale les Mouettes Lauterbourg","city":"Lauterbourg","department":"Bas-Rhin","type":"Lac","score":100,"comfort":true,"wheelchair":true,"lifeguard":true,"dogs":false}},{"type":"Feature","geometry":{"type":"Point","coordinates":[6.75301832175,47.95116798303]},"properties":{"slug":"base-de-loisirs-du-lac-de-la-moselotte-saulxures-sur-moselotte","name":"Base de Loisirs du Lac de la Moselotte","city":"Saulxures-sur-Moselotte","department":"Vosges","type":"Lac","score":100,"comfort":true,"wheelchair":true,"lifeguard":true,"dogs":true}},{"type":"Feature","geometry":{"type":"Point","coordinates":[2.72631129964,48.91244593489]},"properties":{"slug":"jablines-ile-de-loisirs-de-jablines-annet-annet-sur-marne","name":"Jablines - Ile de Loisirs de Jablines Annet","city":"Annet-sur-Marne","department":"Seine-et-Marne","type":"Lac","score":100,"comfort":true,"wheelchair":true,"lifeguard":true,"dogs":true}},{"type":"Feature","geometry":{"type":"Point","coordinates":[2.60014193856,48.86362759819]},"properties":{"slug":"champs-sur-marne-base-de-loisirs-gb-champs-sur-marne","name":"Champs-sur-Marne - Base de Loisirs - Gb","city":"Champs-sur-Marne","department":"Seine-et-Marne","type":"Lac","score":100,"comfort":true,"wheelchair":true,"lifeguard":true,"dogs":false}},{"type":"Feature","geometry":{"type":"Point","coordinates":[2.65720573764,48.86699724125]},"properties":{"slug":"torcy-ile-de-loisirs-de-vaires-torcy-torcy","name":"Torcy - Ile de Loisirs de Vaires Torcy","city":"Torcy","department":"Seine-et-Marne","type":"Lac","score":100,"comfort":true,"wheelchair":true,"lifeguard":true,"dogs":false}},{"type":"Feature","geometry":{"type":"Point","coordinates":[1.79716641455,48.73083102986]},"properties":{"slug":"base-de-loisirs-des-etangs-de-hollande-breviaires-les","name":"Base de Loisirs des Etangs de Hollande","city":"Breviaires (Les)","department":"Yvelines","type":"Lac","score":100,"comfort":true,"wheelchair":true,"lifeguard":true,"dogs":true}},{"type":"Feature","geometry":{"type":"Point","coordinates":[0.7088823304,45.80335675239]},"properties":{"slug":"la-guerlie-pressignac","name":"La Guerlie","city":"Pressignac","department":"Charente","type":"Lac","score":100,"comfort":true,"wheelchair":true,"lifeguard":true,"dogs":false}},{"type":"Feature","geometry":{"type":"Point","coordinates":[1.46353305396,45.09763950252]},"properties":{"slug":"plan-d-eau-intercommunal-lissac-sur-couze","name":"Plan d'Eau Intercommunal","city":"Lissac-sur-Couze","department":"Corrèze","type":"Lac","score":100,"comfort":true,"wheelchair":true,"lifeguard":true,"dogs":false}},{"type":"Feature","geometry":{"type":"Point","coordinates":[2.29221895847,45.38871703432]},"properties":{"slug":"la-plage-neuvic","name":"La Plage","city":"Neuvic","department":"Corrèze","type":"Lac","score":100,"comfort":true,"wheelchair":true,"lifeguard":true,"dogs":false}},{"type":"Feature","geometry":{"type":"Point","coordinates":[1.89755989274,45.78993567154]},"properties":{"slug":"vauveix-royere-de-vassiviere","name":"Vauveix","city":"Royere-de-Vassiviere","department":"Creuse","type":"Lac","score":100,"comfort":true,"wheelchair":true,"lifeguard":true,"dogs":false}},{"type":"Feature","geometry":{"type":"Point","coordinates":[-1.31158583359,43.78630647447]},"properties":{"slug":"la-paillotte-azur","name":"La Paillotte","city":"Azur","department":"Landes","type":"Lac","score":100,"comfort":true,"wheelchair":true,"lifeguard":true,"dogs":true}},{"type":"Feature","geometry":{"type":"Point","coordinates":[-1.14746990103,44.32948115643]},"properties":{"slug":"plage-du-port-gastes","name":"Plage du Port","city":"Gastes","department":"Landes","type":"Lac","score":100,"comfort":true,"wheelchair":true,"lifeguard":true,"dogs":true}},{"type":"Feature","geometry":{"type":"Point","coordinates":[-0.85119791265,44.01522518006]},"properties":{"slug":"lac-d-arjuzanx-morcenx-la-nouvelle","name":"Lac d'Arjuzanx","city":"Morcenx-la-Nouvelle","department":"Landes","type":"Lac","score":100,"comfort":true,"wheelchair":true,"lifeguard":true,"dogs":false}},{"type":"Feature","geometry":{"type":"Point","coordinates":[-1.11134593883,44.35011875796]},"properties":{"slug":"mouteou-pipiou-parentis-en-born","name":"Mouteou-Pipiou","city":"Parentis-en-Born","department":"Landes","type":"Lac","score":100,"comfort":true,"wheelchair":true,"lifeguard":true,"dogs":true}},{"type":"Feature","geometry":{"type":"Point","coordinates":[0.88843162688,44.26884881395]},"properties":{"slug":"camping-prive-vallon-de-gerbal-beauville","name":"Camping Prive Vallon de Gerbal","city":"Beauville","department":"Lot-et-Garonne","type":"Lac","score":100,"comfort":true,"wheelchair":true,"lifeguard":true,"dogs":true}},{"type":"Feature","geometry":{"type":"Point","coordinates":[1.27631751964,46.04920729124]},"properties":{"slug":"freaudour-saint-pardoux-le-lac","name":"Freaudour","city":"Saint-Pardoux-le-Lac","department":"Haute-Vienne","type":"Lac","score":100,"comfort":true,"wheelchair":true,"lifeguard":true,"dogs":true}},{"type":"Feature","geometry":{"type":"Point","coordinates":[-1.65361370557,47.18375007104]},"properties":{"slug":"roche-ballue-bouguenais","name":"Roche Ballue","city":"Bouguenais","department":"Loire-Atlantique","type":"Lac","score":100,"comfort":true,"wheelchair":true,"lifeguard":true,"dogs":true}},{"type":"Feature","geometry":{"type":"Point","coordinates":[-1.4182501302,47.52690353925]},"properties":{"slug":"vioreau-joue-sur-erdre","name":"Vioreau","city":"Joue-sur-Erdre","department":"Loire-Atlantique","type":"Lac","score":100,"comfort":true,"wheelchair":true,"lifeguard":true,"dogs":true}},{"type":"Feature","geometry":{"type":"Point","coordinates":[-1.27770786815,47.34634053384]},"properties":{"slug":"plan-d-eau-oudon","name":"Plan d'Eau","city":"Oudon","department":"Loire-Atlantique","type":"Lac","score":100,"comfort":true,"wheelchair":true,"lifeguard":true,"dogs":false}},{"type":"Feature","geometry":{"type":"Point","coordinates":[-1.88730869621,47.5379832143]},"properties":{"slug":"etang-de-buhel-plesse","name":"Etang de Buhel","city":"Plesse","department":"Loire-Atlantique","type":"Lac","score":100,"comfort":true,"wheelchair":true,"lifeguard":true,"dogs":false}},{"type":"Feature","geometry":{"type":"Point","coordinates":[-0.59182475106,47.46091355992]},"properties":{"slug":"lac-de-maine-angers","name":"Lac de Maine","city":"Angers","department":"Maine-et-Loire","type":"Lac","score":100,"comfort":true,"wheelchair":true,"lifeguard":true,"dogs":true}},{"type":"Feature","geometry":{"type":"Point","coordinates":[-0.0463038857,47.70056074525]},"properties":{"slug":"plan-d-eau-de-la-monnerie-la-fleche-fleche-la","name":"Plan d'Eau de la Monnerie  la Fleche","city":"Fleche (La)","department":"Sarthe","type":"Lac","score":100,"comfort":true,"wheelchair":true,"lifeguard":true,"dogs":false}},{"type":"Feature","geometry":{"type":"Point","coordinates":[-0.13035946195,48.21246180288]},"properties":{"slug":"lac-de-sille-le-guillaume-sille-le-guillaume","name":"Lac de Sille le Guillaume","city":"Sille-le-Guillaume","department":"Sarthe","type":"Lac","score":100,"comfort":true,"wheelchair":true,"lifeguard":true,"dogs":true}},{"type":"Feature","geometry":{"type":"Point","coordinates":[6.32285289226,44.46658516821]},"properties":{"slug":"port-saint-pierre-plage-sauze-du-lac-le","name":"Port Saint Pierre (Plage)","city":"Sauze-du-Lac (Le)","department":"Hautes-Alpes","type":"Lac","score":100,"comfort":true,"wheelchair":true,"lifeguard":true,"dogs":false}},{"type":"Feature","geometry":{"type":"Point","coordinates":[6.40620751855,44.52854653019]},"properties":{"slug":"combette-savines-le-lac","name":"Combette","city":"Savines-le-Lac","department":"Hautes-Alpes","type":"Lac","score":100,"comfort":true,"wheelchair":true,"lifeguard":true,"dogs":false}},{"type":"Feature","geometry":{"type":"Point","coordinates":[4.25463609389,45.44792284773]},"properties":{"slug":"ret-grangent-base-nautique-saint-etienne","name":"Ret.grangent - Base Nautique  ","city":"Saint-Etienne","department":"Loire","type":"Lac","score":100,"comfort":true,"wheelchair":true,"lifeguard":true,"dogs":false}},{"type":"Feature","geometry":{"type":"Point","coordinates":[6.2481809104,45.58623943782]},"properties":{"slug":"plan-d-eau-du-lac-de-gresy-gresy-sur-isere","name":"Plan d'Eau du Lac de Gresy","city":"Gresy-sur-Isere","department":"Savoie","type":"Lac","score":100,"comfort":true,"wheelchair":false,"lifeguard":true,"dogs":true}},{"type":"Feature","geometry":{"type":"Point","coordinates":[-2.000301697,48.65857722737]},"properties":{"slug":"le-sillon-saint-malo","name":"Le Sillon","city":"Saint-Malo","department":"Ille-et-Vilaine","type":"Eau côtière","score":100,"comfort":true,"wheelchair":true,"lifeguard":true,"dogs":true}},{"type":"Feature","geometry":{"type":"Point","coordinates":[-3.38302110716,47.70439618209]},"properties":{"slug":"port-maria-larmor-plage","name":"Port Maria","city":"Larmor-Plage","department":"Morbihan","type":"Eau côtière","score":100,"comfort":true,"wheelchair":true,"lifeguard":true,"dogs":false}},{"type":"Feature","geometry":{"type":"Point","coordinates":[0.36044268086,49.76061377206]},"properties":{"slug":"fecamp-plage-fecamp","name":"Fecamp-Plage","city":"Fecamp","department":"Seine-Maritime","type":"Eau côtière","score":100,"comfort":true,"wheelchair":true,"lifeguard":true,"dogs":true}},{"type":"Feature","geometry":{"type":"Point","coordinates":[0.15299774799,49.64739242943]},"properties":{"slug":"st-jouin-plage-saint-jouin-bruneval","name":"St-Jouin-Plage","city":"Saint-Jouin-Bruneval","department":"Seine-Maritime","type":"Eau côtière","score":100,"comfort":true,"wheelchair":true,"lifeguard":true,"dogs":true}},{"type":"Feature","geometry":{"type":"Point","coordinates":[-1.09211138842,45.98380284621]},"properties":{"slug":"plage-de-la-coue-fouras","name":"Plage de la Coue","city":"Fouras","department":"Charente-Maritime","type":"Eau côtière","score":100,"comfort":true,"wheelchair":true,"lifeguard":true,"dogs":false}},{"type":"Feature","geometry":{"type":"Point","coordinates":[3.93659173223,43.5286325249]},"properties":{"slug":"rive-gauche-hotel-de-ville-palavas-les-flots","name":"Rive Gauche - Hotel de Ville","city":"Palavas-les-Flots","department":"Hérault","type":"Eau côtière","score":100,"comfort":true,"wheelchair":true,"lifeguard":true,"dogs":true}},{"type":"Feature","geometry":{"type":"Point","coordinates":[-2.41609572561,47.27749699645]},"properties":{"slug":"plage-benoit-baule-escoublac-la","name":"Plage Benoit","city":"Baule-Escoublac (La)","department":"Loire-Atlantique","type":"Eau côtière","score":100,"comfort":true,"wheelchair":true,"lifeguard":true,"dogs":false}},{"type":"Feature","geometry":{"type":"Point","coordinates":[-2.16506435127,47.21628828742]},"properties":{"slug":"plage-des-rochelets-saint-brevin-les-pins","name":"Plage des Rochelets","city":"Saint-Brevin-les-Pins","department":"Loire-Atlantique","type":"Eau côtière","score":100,"comfort":true,"wheelchair":true,"lifeguard":true,"dogs":true}},{"type":"Feature","geometry":{"type":"Point","coordinates":[6.15383394597,43.75969775985]},"properties":{"slug":"plage-du-village-sainte-croix-du-verdon","name":"Plage du Village","city":"Sainte-Croix-du-Verdon","department":"Alpes-de-Haute-Provence","type":"Lac","score":100,"comfort":false,"wheelchair":false,"lifeguard":true,"dogs":true}},{"type":"Feature","geometry":{"type":"Point","coordinates":[5.07026350601,43.33135656548]},"properties":{"slug":"plages-de-la-saulce-et-de-sainte-croix-martigues","name":"Plages de la Saulce et de Sainte Croix","city":"Martigues","department":"Bouches-du-Rhône","type":"Eau côtière","score":100,"comfort":true,"wheelchair":true,"lifeguard":true,"dogs":false}},{"type":"Feature","geometry":{"type":"Point","coordinates":[6.84121628358,46.25644458054]},"properties":{"slug":"chatel-lac-de-vonnes-chatel","name":"Chatel Lac de Vonnes","city":"Chatel","department":"Haute-Savoie","type":"Lac","score":100,"comfort":false,"wheelchair":false,"lifeguard":true,"dogs":true}},{"type":"Feature","geometry":{"type":"Point","coordinates":[-4.77915105333,48.35658721448]},"properties":{"slug":"portez-conquet-le","name":"Portez","city":"Conquet (Le)","department":"Finistère","type":"Eau côtière","score":100,"comfort":false,"wheelchair":false,"lifeguard":true,"dogs":false}},{"type":"Feature","geometry":{"type":"Point","coordinates":[5.60948518839,45.65660355498]},"properties":{"slug":"bregnier-cordon-plan-d-eau-communal-de-glandieu-bregnier-cordon","name":"Bregnier-Cordon - Plan d'Eau Communal de Glandieu","city":"Bregnier-Cordon","department":"Ain","type":"Lac","score":95,"comfort":true,"wheelchair":false,"lifeguard":true,"dogs":true}},{"type":"Feature","geometry":{"type":"Point","coordinates":[6.14946355436,46.35401680196]},"properties":{"slug":"divonne-les-bains-lac-de-divonne-divonne-les-bains","name":"Divonne-les-Bains - Lac de Divonne","city":"Divonne-les-Bains","department":"Ain","type":"Lac","score":95,"comfort":true,"wheelchair":false,"lifeguard":true,"dogs":true}},{"type":"Feature","geometry":{"type":"Point","coordinates":[5.13900099347,46.34088707455]},"properties":{"slug":"malafretaz-plan-d-eau-de-la-base-de-plein-air-la-plaine-tonique-malafretaz","name":"Malafretaz - Plan d'Eau de la Base de Plein Air la Plaine Tonique","city":"Malafretaz","department":"Ain","type":"Lac","score":95,"comfort":true,"wheelchair":false,"lifeguard":true,"dogs":true}},{"type":"Feature","geometry":{"type":"Point","coordinates":[5.51728590082,45.43446186724]},"properties":{"slug":"charavines-lac-de-paladru-charavines","name":"Charavines - Lac de Paladru","city":"Charavines","department":"Isère","type":"Lac","score":95,"comfort":false,"wheelchair":true,"lifeguard":true,"dogs":false}},{"type":"Feature","geometry":{"type":"Point","coordinates":[2.85517964218,45.50935040628]},"properties":{"slug":"plan-d-eau-de-super-besse-besse-et-saint-anastaise","name":"Plan d'Eau de Super Besse","city":"Besse-et-Saint-Anastaise","department":"Puy-de-Dôme","type":"Lac","score":95,"comfort":true,"wheelchair":false,"lifeguard":true,"dogs":false}},{"type":"Feature","geometry":{"type":"Point","coordinates":[2.91591529473,45.57348089271]},"properties":{"slug":"lac-chambon-plage-ouest-chambon-sur-lac","name":"Lac Chambon : Plage Ouest","city":"Chambon-sur-Lac","department":"Puy-de-Dôme","type":"Lac","score":95,"comfort":false,"wheelchair":true,"lifeguard":true,"dogs":true}},{"type":"Feature","geometry":{"type":"Point","coordinates":[4.72639636495,45.9531505953]},"properties":{"slug":"plan-d-eau-du-colombier-anse","name":"Plan d'Eau du Colombier","city":"Anse","department":"Rhône","type":"Lac","score":95,"comfort":true,"wheelchair":false,"lifeguard":true,"dogs":false}},{"type":"Feature","geometry":{"type":"Point","coordinates":[4.75029576454,45.97052761071]},"properties":{"slug":"plan-d-eau-du-bordelan-villefranche-sur-saone","name":"Plan d'Eau du Bordelan","city":"Villefranche-sur-Saone","department":"Rhône","type":"Lac","score":95,"comfort":true,"wheelchair":false,"lifeguard":true,"dogs":false}},{"type":"Feature","geometry":{"type":"Point","coordinates":[5.84489698641,45.80008969161]},"properties":{"slug":"plage-de-chatillon-chindrieux","name":"Plage de Chatillon","city":"Chindrieux","department":"Savoie","type":"Lac","score":95,"comfort":true,"wheelchair":false,"lifeguard":true,"dogs":true}},{"type":"Feature","geometry":{"type":"Point","coordinates":[5.8209942628,45.79317488246]},"properties":{"slug":"plage-municipale-de-conjux-conjux","name":"Plage Municipale de Conjux","city":"Conjux","department":"Savoie","type":"Lac","score":95,"comfort":true,"wheelchair":false,"lifeguard":true,"dogs":false}},{"type":"Feature","geometry":{"type":"Point","coordinates":[5.77651009218,45.54304150973]},"properties":{"slug":"plage-base-de-loisirs-de-lepin-lepin-le-lac","name":"Plage Base de Loisirs de Lepin","city":"Lepin-le-Lac","department":"Savoie","type":"Lac","score":95,"comfort":true,"wheelchair":false,"lifeguard":true,"dogs":true}},{"type":"Feature","geometry":{"type":"Point","coordinates":[5.83089880084,45.93384527903]},"properties":{"slug":"plan-d-eau-de-l-espace-sports-et-nature-du-fier-motz","name":"Plan d'Eau de l'Espace Sports et Nature du Fier","city":"Motz","department":"Savoie","type":"Lac","score":95,"comfort":false,"wheelchair":true,"lifeguard":true,"dogs":true}},{"type":"Feature","geometry":{"type":"Point","coordinates":[5.79642776385,45.56473996966]},"properties":{"slug":"plage-bon-vent-novalaise","name":"Plage Bon Vent","city":"Novalaise","department":"Savoie","type":"Lac","score":95,"comfort":true,"wheelchair":false,"lifeguard":true,"dogs":false}},{"type":"Feature","geometry":{"type":"Point","coordinates":[6.35946364861,46.34962434177]},"properties":{"slug":"excenevex-municipale-excenevex","name":"Excenevex  Municipale","city":"Excenevex","department":"Haute-Savoie","type":"Lac","score":95,"comfort":false,"wheelchair":true,"lifeguard":true,"dogs":false}},{"type":"Feature","geometry":{"type":"Point","coordinates":[6.68076430905,46.08658604246]},"properties":{"slug":"morillon-municipale-morillon","name":"Morillon  Municipale","city":"Morillon","department":"Haute-Savoie","type":"Lac","score":95,"comfort":false,"wheelchair":true,"lifeguard":true,"dogs":true}},{"type":"Feature","geometry":{"type":"Point","coordinates":[6.65418052129,45.92230788461]},"properties":{"slug":"passy-iles-passy","name":"Passy  Iles","city":"Passy","department":"Haute-Savoie","type":"Lac","score":95,"comfort":false,"wheelchair":true,"lifeguard":true,"dogs":true}},{"type":"Feature","geometry":{"type":"Point","coordinates":[6.21168840078,45.8377851617]},"properties":{"slug":"talloires-municipale-talloires-montmin","name":"Talloires  Municipale","city":"Talloires-Montmin","department":"Haute-Savoie","type":"Lac","score":95,"comfort":false,"wheelchair":true,"lifeguard":true,"dogs":false}},{"type":"Feature","geometry":{"type":"Point","coordinates":[6.21818763859,45.82807399808]},"properties":{"slug":"talloires-espace-lac-cassines-talloires-montmin","name":"Talloires  Espace Lac-Cassines","city":"Talloires-Montmin","department":"Haute-Savoie","type":"Lac","score":95,"comfort":false,"wheelchair":true,"lifeguard":true,"dogs":false}},{"type":"Feature","geometry":{"type":"Point","coordinates":[6.22126017454,45.82329089844]},"properties":{"slug":"talloires-angon-talloires-montmin","name":"Talloires  Angon","city":"Talloires-Montmin","department":"Haute-Savoie","type":"Lac","score":95,"comfort":false,"wheelchair":true,"lifeguard":true,"dogs":false}},{"type":"Feature","geometry":{"type":"Point","coordinates":[6.50178346052,46.40106139096]},"properties":{"slug":"thonon-saint-disdille-thonon-les-bains","name":"Thonon  Saint-Disdille","city":"Thonon-les-Bains","department":"Haute-Savoie","type":"Lac","score":95,"comfort":false,"wheelchair":true,"lifeguard":true,"dogs":false}},{"type":"Feature","geometry":{"type":"Point","coordinates":[5.17992766182,47.28278035846]},"properties":{"slug":"lac-de-la-tille-magny-sur-tille","name":"Lac de la Tille","city":"Magny-sur-Tille","department":"Côte-d'Or","type":"Lac","score":95,"comfort":true,"wheelchair":false,"lifeguard":true,"dogs":true}},{"type":"Feature","geometry":{"type":"Point","coordinates":[6.31955153058,46.82557035915]},"properties":{"slug":"la-plage-des-grangettes-grangettes-les","name":"La Plage des Grangettes","city":"Grangettes (Les)","department":"Doubs","type":"Lac","score":95,"comfort":true,"wheelchair":false,"lifeguard":true,"dogs":false}},{"type":"Feature","geometry":{"type":"Point","coordinates":[6.26959809702,46.77038158159]},"properties":{"slug":"plage-du-lac-de-remoray-labergement-sainte-marie","name":"Plage du Lac de Remoray","city":"Labergement-Sainte-Marie","department":"Doubs","type":"Lac","score":95,"comfort":true,"wheelchair":false,"lifeguard":true,"dogs":true}},{"type":"Feature","geometry":{"type":"Point","coordinates":[5.8501995161,47.13962070019]},"properties":{"slug":"la-sabliere-osselle-routelle","name":"La Sabliere","city":"Osselle-Routelle","department":"Doubs","type":"Lac","score":95,"comfort":true,"wheelchair":false,"lifeguard":true,"dogs":false}},{"type":"Feature","geometry":{"type":"Point","coordinates":[6.30431168527,46.81185187682]},"properties":{"slug":"le-port-saint-point-lac","name":"Le Port","city":"Saint-Point-Lac","department":"Doubs","type":"Lac","score":95,"comfort":true,"wheelchair":false,"lifeguard":true,"dogs":false}},{"type":"Feature","geometry":{"type":"Point","coordinates":[5.77956875454,46.66640974177]},"properties":{"slug":"doucier-lac-de-chalain-doucier","name":"Doucier - Lac de Chalain","city":"Doucier","department":"Jura","type":"Lac","score":95,"comfort":false,"wheelchair":true,"lifeguard":true,"dogs":true}},{"type":"Feature","geometry":{"type":"Point","coordinates":[5.66929873587,46.47945157997]},"properties":{"slug":"bellecin-lac-de-vouglans-orgelet","name":"Bellecin - Lac de Vouglans","city":"Orgelet","department":"Jura","type":"Lac","score":95,"comfort":false,"wheelchair":true,"lifeguard":true,"dogs":true}},{"type":"Feature","geometry":{"type":"Point","coordinates":[4.06985540826,47.18544881804]},"properties":{"slug":"base-de-loisirs-activital-montsauche-les-settons","name":"Base de Loisirs Activital","city":"Montsauche-les-Settons","department":"Nièvre","type":"Lac","score":95,"comfort":true,"wheelchair":true,"lifeguard":true,"dogs":true}},{"type":"Feature","geometry":{"type":"Point","coordinates":[4.83004453565,46.67061295446]},"properties":{"slug":"lac-de-la-ferte-laives","name":"Lac de la Ferte","city":"Laives","department":"Saône-et-Loire","type":"Lac","score":95,"comfort":true,"wheelchair":false,"lifeguard":true,"dogs":true}},{"type":"Feature","geometry":{"type":"Point","coordinates":[4.61380756109,46.33559851026]},"properties":{"slug":"lac-intercommunal-saint-point-saint-point","name":"Lac Intercommunal Saint Point","city":"Saint-Point","department":"Saône-et-Loire","type":"Lac","score":95,"comfort":true,"wheelchair":false,"lifeguard":true,"dogs":true}},{"type":"Feature","geometry":{"type":"Point","coordinates":[-1.31566129711,47.83460139245]},"properties":{"slug":"la-forge-martigne-ferchaud","name":"La Forge","city":"Martigne-Ferchaud","department":"Ille-et-Vilaine","type":"Lac","score":95,"comfort":false,"wheelchair":true,"lifeguard":true,"dogs":true}},{"type":"Feature","geometry":{"type":"Point","coordinates":[-1.74194699004,48.09744869454]},"properties":{"slug":"apigne-rennes","name":"Apigne","city":"Rennes","department":"Ille-et-Vilaine","type":"Lac","score":95,"comfort":false,"wheelchair":true,"lifeguard":true,"dogs":true}},{"type":"Feature","geometry":{"type":"Point","coordinates":[-2.41981929759,47.94824727756]},"properties":{"slug":"lac-au-duc-taupont","name":"Lac au Duc","city":"Taupont","department":"Morbihan","type":"Lac","score":95,"comfort":true,"wheelchair":false,"lifeguard":true,"dogs":false}},{"type":"Feature","geometry":{"type":"Point","coordinates":[2.96115353146,46.9415621593]},"properties":{"slug":"etang-de-robinson-guerche-sur-l-aubois-la","name":"Etang de Robinson","city":"Guerche-sur-l'Aubois (La)","department":"Cher","type":"Lac","score":95,"comfort":true,"wheelchair":false,"lifeguard":true,"dogs":true}},{"type":"Feature","geometry":{"type":"Point","coordinates":[1.28762635074,46.43364917838]},"properties":{"slug":"roche-gaudon-chaillac","name":"Roche Gaudon","city":"Chaillac","department":"Indre","type":"Lac","score":95,"comfort":true,"wheelchair":false,"lifeguard":true,"dogs":true}},{"type":"Feature","geometry":{"type":"Point","coordinates":[1.69393057491,46.82749744462]},"properties":{"slug":"belle-isle-chateauroux","name":"Belle Isle","city":"Chateauroux","department":"Indre","type":"Lac","score":95,"comfort":true,"wheelchair":false,"lifeguard":true,"dogs":true}},{"type":"Feature","geometry":{"type":"Point","coordinates":[1.61241956382,46.43375270689]},"properties":{"slug":"chambon-a-eguzon-chantome","name":"Chambon a","city":"Eguzon-Chantome","department":"Indre","type":"Lac","score":95,"comfort":true,"wheelchair":false,"lifeguard":true,"dogs":false}},{"type":"Feature","geometry":{"type":"Point","coordinates":[2.73022113025,48.02359507712]},"properties":{"slug":"etang-communal-chalette-sur-loing","name":"Etang Communal","city":"Chalette-sur-Loing","department":"Loiret","type":"Lac","score":95,"comfort":true,"wheelchair":false,"lifeguard":true,"dogs":true}},{"type":"Feature","geometry":{"type":"Point","coordinates":[4.60556437261,49.87127358659]},"properties":{"slug":"les-vieilles-forges-mazures-les","name":"Les Vieilles Forges","city":"Mazures (Les)","department":"Ardennes","type":"Lac","score":95,"comfort":true,"wheelchair":false,"lifeguard":true,"dogs":true}},{"type":"Feature","geometry":{"type":"Point","coordinates":[4.77609885649,48.54948149901]},"properties":{"slug":"giffaumont-plage-du-camping-der-giffaumont-champaubert","name":"Giffaumont Plage du Camping (Der)","city":"Giffaumont-Champaubert","department":"Marne","type":"Lac","score":95,"comfort":true,"wheelchair":false,"lifeguard":true,"dogs":false}},{"type":"Feature","geometry":{"type":"Point","coordinates":[4.74593772066,48.60378757198]},"properties":{"slug":"sainte-marie-du-lac-nuisement-plage-de-nuisement-sainte-marie-du-lac-nuisement","name":"Sainte Marie du Lac Nuisement Plage de Nuisement","city":"Sainte-Marie-du-Lac-Nuisement","department":"Marne","type":"Lac","score":95,"comfort":true,"wheelchair":false,"lifeguard":true,"dogs":false}},{"type":"Feature","geometry":{"type":"Point","coordinates":[5.72119273784,48.93870561373]},"properties":{"slug":"madine-plage-heudicourt-heudicourt-sous-les-cotes","name":"Madine - Plage Heudicourt","city":"Heudicourt-sous-les-Cotes","department":"Meuse","type":"Lac","score":95,"comfort":true,"wheelchair":false,"lifeguard":true,"dogs":true}},{"type":"Feature","geometry":{"type":"Point","coordinates":[5.37520973179,49.15520284476]},"properties":{"slug":"le-pre-l-eveque-verdun","name":"Le Pre l'Eveque","city":"Verdun","department":"Meuse","type":"Lac","score":95,"comfort":true,"wheelchair":false,"lifeguard":true,"dogs":false}},{"type":"Feature","geometry":{"type":"Point","coordinates":[7.78236238934,48.6309365446]},"properties":{"slug":"baignade-la-ballastiere-bischheim-bischheim","name":"Baignade la Ballastiere Bischheim","city":"Bischheim","department":"Bas-Rhin","type":"Lac","score":95,"comfort":true,"wheelchair":false,"lifeguard":true,"dogs":true}},{"type":"Feature","geometry":{"type":"Point","coordinates":[7.6575108507,48.22620118653]},"properties":{"slug":"camping-plage-de-schoenau-schoenau","name":"Camping-Plage de Schoenau","city":"Schoenau","department":"Bas-Rhin","type":"Lac","score":95,"comfort":true,"wheelchair":false,"lifeguard":true,"dogs":false}},{"type":"Feature","geometry":{"type":"Point","coordinates":[3.67977538967,49.46550883889]},"properties":{"slug":"center-parcs-chamouille-chamouille","name":"Center Parcs Chamouille","city":"Chamouille","department":"Aisne","type":"Lac","score":95,"comfort":true,"wheelchair":false,"lifeguard":true,"dogs":true}},{"type":"Feature","geometry":{"type":"Point","coordinates":[0.72010166887,49.1878244156]},"properties":{"slug":"brionne-baignade-municipale-brionne","name":"Brionne  Baignade  Municipale","city":"Brionne","department":"Eure","type":"Lac","score":95,"comfort":true,"wheelchair":false,"lifeguard":true,"dogs":false}},{"type":"Feature","geometry":{"type":"Point","coordinates":[1.71342847202,45.18543522018]},"properties":{"slug":"plan-d-eau-du-coiroux-aubazines","name":"Plan d'Eau du Coiroux","city":"Aubazines","department":"Corrèze","type":"Lac","score":95,"comfort":true,"wheelchair":false,"lifeguard":true,"dogs":false}},{"type":"Feature","geometry":{"type":"Point","coordinates":[2.16099158614,45.29837408392]},"properties":{"slug":"etang-de-vendahaut-lapleau","name":"Etang de Vendahaut","city":"Lapleau","department":"Corrèze","type":"Lac","score":95,"comfort":true,"wheelchair":false,"lifeguard":true,"dogs":false}},{"type":"Feature","geometry":{"type":"Point","coordinates":[2.30359930174,45.38922056985]},"properties":{"slug":"le-maury-liginiac","name":"Le Maury","city":"Liginiac","department":"Corrèze","type":"Lac","score":95,"comfort":true,"wheelchair":false,"lifeguard":true,"dogs":false}},{"type":"Feature","geometry":{"type":"Point","coordinates":[2.48392248842,45.41922736209]},"properties":{"slug":"les-aubazines-hautes-sarroux-saint-julien","name":"Les Aubazines Hautes","city":"Sarroux - Saint Julien","department":"Corrèze","type":"Lac","score":95,"comfort":true,"wheelchair":false,"lifeguard":true,"dogs":false}},{"type":"Feature","geometry":{"type":"Point","coordinates":[1.88737777498,46.26219823352]},"properties":{"slug":"pechadoire-anzeme","name":"Pechadoire","city":"Anzeme","department":"Creuse","type":"Lac","score":95,"comfort":true,"wheelchair":false,"lifeguard":true,"dogs":true}},{"type":"Feature","geometry":{"type":"Point","coordinates":[-1.20269219258,44.22363225741]},"properties":{"slug":"le-ponton-aureilhan","name":"Le Ponton","city":"Aureilhan","department":"Landes","type":"Lac","score":95,"comfort":true,"wheelchair":false,"lifeguard":true,"dogs":true}},{"type":"Feature","geometry":{"type":"Point","coordinates":[-1.31549270023,43.88763232084]},"properties":{"slug":"lac-de-leon-leon","name":"Lac de Leon","city":"Leon","department":"Landes","type":"Lac","score":95,"comfort":true,"wheelchair":false,"lifeguard":true,"dogs":false}},{"type":"Feature","geometry":{"type":"Point","coordinates":[-1.07728416049,44.49391439082]},"properties":{"slug":"caton-sanguinet","name":"Caton","city":"Sanguinet","department":"Landes","type":"Lac","score":95,"comfort":true,"wheelchair":false,"lifeguard":true,"dogs":true}},{"type":"Feature","geometry":{"type":"Point","coordinates":[-1.08157179078,44.48737367216]},"properties":{"slug":"pavillon-sanguinet","name":"Pavillon","city":"Sanguinet","department":"Landes","type":"Lac","score":95,"comfort":true,"wheelchair":false,"lifeguard":true,"dogs":false}},{"type":"Feature","geometry":{"type":"Point","coordinates":[-0.35686946505,46.4345201513]},"properties":{"slug":"plan-d-eau-de-cherveux-cherveux","name":"Plan d'Eau de Cherveux","city":"Cherveux","department":"Deux-Sèvres","type":"Lac","score":95,"comfort":true,"wheelchair":false,"lifeguard":true,"dogs":false}},{"type":"Feature","geometry":{"type":"Point","coordinates":[0.23572841769,46.12206306489]},"properties":{"slug":"st-macoux-plan-d-eau-communal-du-marais-saint-macoux","name":"St Macoux - Plan d'Eau Communal du Marais","city":"Saint-Macoux","department":"Vienne","type":"Lac","score":95,"comfort":false,"wheelchair":true,"lifeguard":true,"dogs":false}},{"type":"Feature","geometry":{"type":"Point","coordinates":[1.28984549827,46.0264262038]},"properties":{"slug":"les-chabannes-compreignac","name":"Les Chabannes","city":"Compreignac","department":"Haute-Vienne","type":"Lac","score":95,"comfort":true,"wheelchair":false,"lifeguard":true,"dogs":true}},{"type":"Feature","geometry":{"type":"Point","coordinates":[1.43938934205,45.54999854608]},"properties":{"slug":"la-roche-meuzac","name":"La Roche","city":"Meuzac","department":"Haute-Vienne","type":"Lac","score":95,"comfort":true,"wheelchair":false,"lifeguard":true,"dogs":true}},{"type":"Feature","geometry":{"type":"Point","coordinates":[1.84515162209,45.80354178573]},"properties":{"slug":"auphelle-peyrat-le-chateau","name":"Auphelle","city":"Peyrat-le-Chateau","department":"Haute-Vienne","type":"Lac","score":95,"comfort":true,"wheelchair":false,"lifeguard":true,"dogs":true}},{"type":"Feature","geometry":{"type":"Point","coordinates":[1.29630272708,46.0308558242]},"properties":{"slug":"santrop-razes","name":"Santrop","city":"Razes","department":"Haute-Vienne","type":"Lac","score":95,"comfort":true,"wheelchair":false,"lifeguard":true,"dogs":true}},{"type":"Feature","geometry":{"type":"Point","coordinates":[1.4388457584,45.9195865371]},"properties":{"slug":"plan-d-eau-du-soleil-levant-saint-martin-terressus","name":"Plan d'Eau du Soleil Levant","city":"Saint-Martin-Terressus","department":"Haute-Vienne","type":"Lac","score":95,"comfort":true,"wheelchair":false,"lifeguard":true,"dogs":true}},{"type":"Feature","geometry":{"type":"Point","coordinates":[0.71468974742,45.80028541767]},"properties":{"slug":"la-chassagne-videix","name":"La Chassagne","city":"Videix","department":"Haute-Vienne","type":"Lac","score":95,"comfort":true,"wheelchair":false,"lifeguard":true,"dogs":false}},{"type":"Feature","geometry":{"type":"Point","coordinates":[2.02661439016,43.43979948762]},"properties":{"slug":"lac-de-saint-ferreol-revel","name":"Lac de Saint Ferreol","city":"Revel","department":"Haute-Garonne","type":"Lac","score":95,"comfort":false,"wheelchair":true,"lifeguard":true,"dogs":true}},{"type":"Feature","geometry":{"type":"Point","coordinates":[3.35691031448,43.66815077341]},"properties":{"slug":"lac-du-salagou-les-vailhes-celles","name":"Lac du Salagou-les Vailhes","city":"Celles","department":"Hérault","type":"Lac","score":95,"comfort":true,"wheelchair":false,"lifeguard":true,"dogs":true}},{"type":"Feature","geometry":{"type":"Point","coordinates":[1.18626692144,44.33931102453]},"properties":{"slug":"plan-d-eau-saint-sernin-montcuq-en-quercy-blanc","name":"Plan d'Eau Saint Sernin","city":"Montcuq-en-Quercy-Blanc","department":"Lot","type":"Lac","score":95,"comfort":true,"wheelchair":false,"lifeguard":true,"dogs":true}},{"type":"Feature","geometry":{"type":"Point","coordinates":[3.92839875238,44.4575172722]},"properties":{"slug":"barrage-de-villefort-villefort","name":"Barrage de Villefort","city":"Villefort","department":"Lozère","type":"Lac","score":95,"comfort":true,"wheelchair":false,"lifeguard":true,"dogs":false}},{"type":"Feature","geometry":{"type":"Point","coordinates":[2.905212533,42.64018155]},"properties":{"slug":"plage-centrale-retenue-touristique-villeneuve-de-la-raho","name":"Plage Centrale (Retenue Touristique)","city":"Villeneuve-de-la-Raho","department":"Pyrénées-Orientales","type":"Lac","score":95,"comfort":true,"wheelchair":true,"lifeguard":true,"dogs":false}},{"type":"Feature","geometry":{"type":"Point","coordinates":[2.53531702512,42.64601100512]},"properties":{"slug":"plage-du-camping-vinca","name":"Plage du Camping","city":"Vinca","department":"Pyrénées-Orientales","type":"Lac","score":95,"comfort":true,"wheelchair":false,"lifeguard":true,"dogs":false}},{"type":"Feature","geometry":{"type":"Point","coordinates":[0.37415075112,48.35768439775]},"properties":{"slug":"plan-d-eau-de-mamers-mamers","name":"Plan d'Eau de Mamers","city":"Mamers","department":"Sarthe","type":"Lac","score":95,"comfort":true,"wheelchair":false,"lifeguard":true,"dogs":true}},{"type":"Feature","geometry":{"type":"Point","coordinates":[0.51895860726,48.11618289523]},"properties":{"slug":"grande-plage-de-tuffe-tuffe-val-de-la-cheronne","name":"Grande Plage de Tuffe","city":"Tuffe Val de la Cheronne","department":"Sarthe","type":"Lac","score":95,"comfort":true,"wheelchair":false,"lifeguard":true,"dogs":true}},{"type":"Feature","geometry":{"type":"Point","coordinates":[-1.73599999707,46.74439438206]},"properties":{"slug":"le-lac-apremont","name":"Le Lac","city":"Apremont","department":"Vendée","type":"Lac","score":95,"comfort":true,"wheelchair":false,"lifeguard":true,"dogs":false}},{"type":"Feature","geometry":{"type":"Point","coordinates":[6.51621436848,43.94520592413]},"properties":{"slug":"plan-du-lac-de-castillon-saint-andre-les-alpes","name":"Plan du Lac de Castillon","city":"Saint-Andre-les-Alpes","department":"Alpes-de-Haute-Provence","type":"Lac","score":95,"comfort":false,"wheelchair":true,"lifeguard":true,"dogs":true}},{"type":"Feature","geometry":{"type":"Point","coordinates":[6.60880301612,44.67630754032]},"properties":{"slug":"plage-plan-d-eau-des-iscles-cote-durance-eygliers","name":"Plage Plan d'Eau des Iscles - Cote Durance","city":"Eygliers","department":"Hautes-Alpes","type":"Lac","score":95,"comfort":true,"wheelchair":false,"lifeguard":true,"dogs":false}},{"type":"Feature","geometry":{"type":"Point","coordinates":[6.10583670004,44.65791286472]},"properties":{"slug":"plan-d-eau-du-champsaur-saint-julien-en-champsaur","name":"Plan d'Eau du Champsaur","city":"Saint-Julien-en-Champsaur","department":"Hautes-Alpes","type":"Lac","score":95,"comfort":false,"wheelchair":true,"lifeguard":true,"dogs":true}},{"type":"Feature","geometry":{"type":"Point","coordinates":[-1.68596746805,43.37296938057]},"properties":{"slug":"larrouleta-plage-urrugne-urrugne","name":"Larrouleta Plage - Urrugne","city":"Urrugne","department":"Pyrénées-Atlantiques","type":"Lac","score":95,"comfort":true,"wheelchair":false,"lifeguard":true,"dogs":false}},{"type":"Feature","geometry":{"type":"Point","coordinates":[2.66338861396,45.40065786659]},"properties":{"slug":"lastioulles-tremouille","name":"Lastioulles","city":"Tremouille","department":"Cantal","type":"Lac","score":95,"comfort":false,"wheelchair":false,"lifeguard":true,"dogs":true}},{"type":"Feature","geometry":{"type":"Point","coordinates":[-3.12077376767,47.47915417278]},"properties":{"slug":"grande-plage-quiberon","name":"Grande Plage","city":"Quiberon","department":"Morbihan","type":"Eau côtière","score":95,"comfort":false,"wheelchair":true,"lifeguard":true,"dogs":false}},{"type":"Feature","geometry":{"type":"Point","coordinates":[0.51193997686,49.82043994238]},"properties":{"slug":"les-grandes-dalles-sassetot-le-mauconduit","name":"Les Grandes-Dalles","city":"Sassetot-le-Mauconduit","department":"Seine-Maritime","type":"Eau côtière","score":95,"comfort":true,"wheelchair":false,"lifeguard":true,"dogs":true}},{"type":"Feature","geometry":{"type":"Point","coordinates":[-1.09230666139,45.99216358991]},"properties":{"slug":"plage-nord-fouras","name":"Plage Nord","city":"Fouras","department":"Charente-Maritime","type":"Eau côtière","score":95,"comfort":true,"wheelchair":false,"lifeguard":true,"dogs":true}},{"type":"Feature","geometry":{"type":"Point","coordinates":[-1.14390051952,45.66430144273]},"properties":{"slug":"plage-les-combots-saint-palais-sur-mer","name":"Plage les Combots","city":"Saint-Palais-sur-Mer","department":"Charente-Maritime","type":"Eau côtière","score":95,"comfort":true,"wheelchair":true,"lifeguard":true,"dogs":true}},{"type":"Feature","geometry":{"type":"Point","coordinates":[-1.25518105137,45.84964224914]},"properties":{"slug":"plage-de-la-giraudiere-grand-village-plage-le","name":"Plage de la Giraudiere","city":"Grand-Village-Plage (Le)","department":"Charente-Maritime","type":"Eau côtière","score":95,"comfort":true,"wheelchair":true,"lifeguard":true,"dogs":true}},{"type":"Feature","geometry":{"type":"Point","coordinates":[3.43922845656,43.28608969545]},"properties":{"slug":"la-tamarissiere-agde","name":"La Tamarissiere","city":"Agde","department":"Hérault","type":"Eau côtière","score":95,"comfort":true,"wheelchair":false,"lifeguard":true,"dogs":false}},{"type":"Feature","geometry":{"type":"Point","coordinates":[-2.22009306197,47.00377816258]},"properties":{"slug":"les-sableaux-noirmoutier-en-l-ile","name":"Les Sableaux","city":"Noirmoutier-en-l'Ile","department":"Vendée","type":"Eau côtière","score":95,"comfort":false,"wheelchair":true,"lifeguard":true,"dogs":false}},{"type":"Feature","geometry":{"type":"Point","coordinates":[7.27060299795,43.69483103744]},"properties":{"slug":"beau-rivage-nice","name":"Beau Rivage","city":"Nice","department":"Alpes-Maritimes","type":"Eau côtière","score":95,"comfort":true,"wheelchair":false,"lifeguard":true,"dogs":true}},{"type":"Feature","geometry":{"type":"Point","coordinates":[5.36159238881,43.2736654151]},"properties":{"slug":"prophete-marseille","name":"Prophete","city":"Marseille","department":"Bouches-du-Rhône","type":"Eau côtière","score":95,"comfort":true,"wheelchair":false,"lifeguard":true,"dogs":false}},{"type":"Feature","geometry":{"type":"Point","coordinates":[5.37285702054,43.25109092313]},"properties":{"slug":"vieille-chapelle-marseille","name":"Vieille Chapelle","city":"Marseille","department":"Bouches-du-Rhône","type":"Eau côtière","score":95,"comfort":true,"wheelchair":false,"lifeguard":true,"dogs":false}},{"type":"Feature","geometry":{"type":"Point","coordinates":[-3.13956261538,47.53811479071]},"properties":{"slug":"pouladen-saint-pierre-quiberon","name":"Pouladen","city":"Saint-Pierre-Quiberon","department":"Morbihan","type":"Eau côtière","score":95,"comfort":false,"wheelchair":false,"lifeguard":true,"dogs":false}},{"type":"Feature","geometry":{"type":"Point","coordinates":[0.07967719263,49.37020105468]},"properties":{"slug":"rue-croix-trouville-sur-mer","name":"Rue Croix","city":"Trouville-sur-Mer","department":"Calvados","type":"Eau côtière","score":95,"comfort":false,"wheelchair":false,"lifeguard":true,"dogs":true}},{"type":"Feature","geometry":{"type":"Point","coordinates":[-0.90188716747,49.37929436434]},"properties":{"slug":"plage-du-monument-vierville-sur-mer","name":"Plage du Monument","city":"Vierville-sur-Mer","department":"Calvados","type":"Eau côtière","score":95,"comfort":false,"wheelchair":false,"lifeguard":true,"dogs":true}},{"type":"Feature","geometry":{"type":"Point","coordinates":[-1.20248611283,45.0018563962]},"properties":{"slug":"centre-lacanau","name":"Centre","city":"Lacanau","department":"Gironde","type":"Eau côtière","score":95,"comfort":false,"wheelchair":false,"lifeguard":true,"dogs":true}},{"type":"Feature","geometry":{"type":"Point","coordinates":[-1.20251615162,44.99447074111]},"properties":{"slug":"plage-sud-lacanau","name":"Plage Sud","city":"Lacanau","department":"Gironde","type":"Eau côtière","score":95,"comfort":false,"wheelchair":false,"lifeguard":true,"dogs":true}},{"type":"Feature","geometry":{"type":"Point","coordinates":[-1.12835869647,45.51619909438]},"properties":{"slug":"ville-soulac-sur-mer","name":"Ville","city":"Soulac-sur-Mer","department":"Gironde","type":"Eau côtière","score":95,"comfort":false,"wheelchair":false,"lifeguard":true,"dogs":true}},{"type":"Feature","geometry":{"type":"Point","coordinates":[-1.15823955237,45.34866754586]},"properties":{"slug":"a-c-m-vendays-montalivet","name":"A.c.m","city":"Vendays-Montalivet","department":"Gironde","type":"Eau côtière","score":95,"comfort":false,"wheelchair":false,"lifeguard":true,"dogs":true}},{"type":"Feature","geometry":{"type":"Point","coordinates":[-1.42178748655,46.34693171823]},"properties":{"slug":"flandres-dunkerque-tranche-sur-mer-la","name":"Flandres Dunkerque","city":"Tranche-sur-Mer (La)","department":"Vendée","type":"Eau côtière","score":95,"comfort":false,"wheelchair":false,"lifeguard":true,"dogs":true}},{"type":"Feature","geometry":{"type":"Point","coordinates":[5.94556953075,43.10741613467]},"properties":{"slug":"plage-source-ouest-toulon","name":"Plage Source Ouest","city":"Toulon","department":"Var","type":"Eau côtière","score":95,"comfort":false,"wheelchair":false,"lifeguard":true,"dogs":false}},{"type":"Feature","geometry":{"type":"Point","coordinates":[3.80776055399,46.50605272381]},"properties":{"slug":"plan-d-eau-communal-pierrefitte-sur-loire","name":"Plan d'Eau Communal","city":"Pierrefitte-sur-Loire","department":"Allier","type":"Lac","score":90,"comfort":true,"wheelchair":true,"lifeguard":true,"dogs":true}},{"type":"Feature","geometry":{"type":"Point","coordinates":[3.96050937018,44.8036076793]},"properties":{"slug":"le-lac-de-coucouron-coucouron","name":"Le Lac de Coucouron","city":"Coucouron","department":"Ardèche","type":"Lac","score":90,"comfort":true,"wheelchair":true,"lifeguard":true,"dogs":false}},{"type":"Feature","geometry":{"type":"Point","coordinates":[4.68295700454,44.36505090778]},"properties":{"slug":"lac-de-pignedore-pierrelatte","name":"Lac de Pignedore","city":"Pierrelatte","department":"Drôme","type":"Lac","score":90,"comfort":true,"wheelchair":true,"lifeguard":true,"dogs":true}},{"type":"Feature","geometry":{"type":"Point","coordinates":[5.0071956369,45.13203868927]},"properties":{"slug":"lac-de-champos-herbasse-saint-donat-sur-l-herbasse","name":"Lac de Champos (Herbasse)","city":"Saint-Donat-sur-l'Herbasse","department":"Drôme","type":"Lac","score":90,"comfort":true,"wheelchair":true,"lifeguard":true,"dogs":false}},{"type":"Feature","geometry":{"type":"Point","coordinates":[5.2926233602,45.10170164403]},"properties":{"slug":"saint-romans-lac-du-marandan-saint-romans","name":"Saint Romans - Lac du Marandan","city":"Saint-Romans","department":"Isère","type":"Lac","score":90,"comfort":true,"wheelchair":true,"lifeguard":true,"dogs":false}},{"type":"Feature","geometry":{"type":"Point","coordinates":[5.94450123051,45.31737589415]},"properties":{"slug":"la-terrasse-lac-de-la-terrasse-plage-terrasse-la","name":"La Terrasse - Lac de la Terrasse - Plage","city":"Terrasse (La)","department":"Isère","type":"Lac","score":90,"comfort":true,"wheelchair":true,"lifeguard":true,"dogs":false}},{"type":"Feature","geometry":{"type":"Point","coordinates":[4.21851814293,45.15092528835]},"properties":{"slug":"barrage-lavalette-lapte","name":"Barrage Lavalette","city":"Lapte","department":"Haute-Loire","type":"Lac","score":90,"comfort":true,"wheelchair":true,"lifeguard":true,"dogs":false}},{"type":"Feature","geometry":{"type":"Point","coordinates":[3.61359413445,45.75129147477]},"properties":{"slug":"plan-d-eau-d-aubusson-d-auvergne-aubusson-d-auvergne","name":"Plan d'Eau d'Aubusson d'Auvergne","city":"Aubusson-d'Auvergne","department":"Puy-de-Dôme","type":"Lac","score":90,"comfort":true,"wheelchair":true,"lifeguard":true,"dogs":false}},{"type":"Feature","geometry":{"type":"Point","coordinates":[2.8839657494,46.22201150543]},"properties":{"slug":"plan-d-eau-de-lapeyrouse-lapeyrouse","name":"Plan d'Eau de Lapeyrouse","city":"Lapeyrouse","department":"Puy-de-Dôme","type":"Lac","score":90,"comfort":true,"wheelchair":true,"lifeguard":true,"dogs":true}},{"type":"Feature","geometry":{"type":"Point","coordinates":[2.75667592464,45.91390465753]},"properties":{"slug":"fades-besserves-confolant-miremont","name":"Fades Besserves : Confolant","city":"Miremont","department":"Puy-de-Dôme","type":"Lac","score":90,"comfort":true,"wheelchair":true,"lifeguard":true,"dogs":false}},{"type":"Feature","geometry":{"type":"Point","coordinates":[2.81569891176,46.03700580197]},"properties":{"slug":"etang-philippe-cote-camping-saint-gervais-d-auvergne","name":"Etang Philippe : Cote Camping","city":"Saint-Gervais-d'Auvergne","department":"Puy-de-Dôme","type":"Lac","score":90,"comfort":true,"wheelchair":true,"lifeguard":true,"dogs":true}},{"type":"Feature","geometry":{"type":"Point","coordinates":[2.75518306546,45.90727377853]},"properties":{"slug":"fades-besserves-la-chazotte-saint-jacques-d-ambur","name":"Fades Besserves : la Chazotte","city":"Saint-Jacques-d'Ambur","department":"Puy-de-Dôme","type":"Lac","score":90,"comfort":true,"wheelchair":true,"lifeguard":true,"dogs":false}},{"type":"Feature","geometry":{"type":"Point","coordinates":[5.82552773438,45.69474630612]},"properties":{"slug":"plan-d-eau-st-jean-de-chevelu-saint-jean-de-chevelu","name":"Plan d'Eau St Jean de Chevelu","city":"Saint-Jean-de-Chevelu","department":"Savoie","type":"Lac","score":90,"comfort":true,"wheelchair":true,"lifeguard":true,"dogs":true}},{"type":"Feature","geometry":{"type":"Point","coordinates":[6.41942435997,46.06815016225]},"properties":{"slug":"bonneville-motte-longue-bonneville","name":"Bonneville  Motte Longue","city":"Bonneville","department":"Haute-Savoie","type":"Lac","score":90,"comfort":true,"wheelchair":true,"lifeguard":true,"dogs":true}},{"type":"Feature","geometry":{"type":"Point","coordinates":[6.67265053485,46.15296241715]},"properties":{"slug":"les-gets-municipale-gets-les","name":"Les Gets  Municipale","city":"Gets (Les)","department":"Haute-Savoie","type":"Lac","score":90,"comfort":true,"wheelchair":true,"lifeguard":true,"dogs":false}},{"type":"Feature","geometry":{"type":"Point","coordinates":[0.16820668622,47.26915601033]},"properties":{"slug":"parc-capitaine-bourgueil","name":"Parc Capitaine","city":"Bourgueil","department":"Indre-et-Loire","type":"Lac","score":90,"comfort":true,"wheelchair":true,"lifeguard":true,"dogs":true}},{"type":"Feature","geometry":{"type":"Point","coordinates":[2.18915509998,47.54371287504]},"properties":{"slug":"camping-parc-des-alicourts-pierrefitte-sur-sauldre","name":"Camping Parc des Alicourts","city":"Pierrefitte-sur-Sauldre","department":"Loir-et-Cher","type":"Lac","score":90,"comfort":true,"wheelchair":true,"lifeguard":true,"dogs":true}},{"type":"Feature","geometry":{"type":"Point","coordinates":[0.99030104824,47.80172798648]},"properties":{"slug":"etang-intercommunal-zone-bain-villiers-sur-loir","name":"Etang Intercommunal _ Zone Bain","city":"Villiers-sur-Loir","department":"Loir-et-Cher","type":"Lac","score":90,"comfort":true,"wheelchair":true,"lifeguard":true,"dogs":false}},{"type":"Feature","geometry":{"type":"Point","coordinates":[4.29839977625,48.26474119556]},"properties":{"slug":"lusigny-sur-barse-lusigny-sur-barse","name":"Lusigny sur Barse","city":"Lusigny-sur-Barse","department":"Aube","type":"Lac","score":90,"comfort":true,"wheelchair":true,"lifeguard":true,"dogs":true}},{"type":"Feature","geometry":{"type":"Point","coordinates":[5.96374513583,48.46780987784]},"properties":{"slug":"zone-de-loisirs-bassin-aval-favieres","name":"Zone de Loisirs - Bassin Aval","city":"Favieres","department":"Meurthe-et-Moselle","type":"Lac","score":90,"comfort":true,"wheelchair":true,"lifeguard":true,"dogs":false}},{"type":"Feature","geometry":{"type":"Point","coordinates":[6.95242640723,49.01300767372]},"properties":{"slug":"etang-de-hirbach-holving","name":"Etang de Hirbach","city":"Holving","department":"Moselle","type":"Lac","score":90,"comfort":true,"wheelchair":true,"lifeguard":true,"dogs":false}},{"type":"Feature","geometry":{"type":"Point","coordinates":[6.94863210579,48.75821416233]},"properties":{"slug":"etang-du-stock-langatte","name":"Etang du Stock","city":"Langatte","department":"Moselle","type":"Lac","score":90,"comfort":true,"wheelchair":true,"lifeguard":true,"dogs":false}},{"type":"Feature","geometry":{"type":"Point","coordinates":[6.93586619985,48.85491513818]},"properties":{"slug":"etang-de-mittersheim-mittersheim","name":"Etang de Mittersheim","city":"Mittersheim","department":"Moselle","type":"Lac","score":90,"comfort":true,"wheelchair":true,"lifeguard":true,"dogs":true}},{"type":"Feature","geometry":{"type":"Point","coordinates":[7.5399662172,49.01087165875]},"properties":{"slug":"etang-de-hanau-philippsbourg","name":"Etang de Hanau","city":"Philippsbourg","department":"Moselle","type":"Lac","score":90,"comfort":true,"wheelchair":true,"lifeguard":true,"dogs":false}},{"type":"Feature","geometry":{"type":"Point","coordinates":[7.03697902579,48.7262318884]},"properties":{"slug":"centre-de-loisirs-etang-l-eveque-sarrebourg","name":"Centre de Loisirs Etang l'Eveque","city":"Sarrebourg","department":"Moselle","type":"Lac","score":90,"comfort":true,"wheelchair":true,"lifeguard":true,"dogs":false}},{"type":"Feature","geometry":{"type":"Point","coordinates":[7.59540854894,49.0651610695]},"properties":{"slug":"etang-du-terrain-de-camping-sturzelbronn","name":"Etang du Terrain de Camping","city":"Sturzelbronn","department":"Moselle","type":"Lac","score":90,"comfort":true,"wheelchair":true,"lifeguard":true,"dogs":false}},{"type":"Feature","geometry":{"type":"Point","coordinates":[8.07371543038,48.85399128594]},"properties":{"slug":"etang-de-la-chapelle-beinheim-beinheim","name":"Etang de la Chapelle Beinheim","city":"Beinheim","department":"Bas-Rhin","type":"Lac","score":90,"comfort":true,"wheelchair":true,"lifeguard":true,"dogs":false}},{"type":"Feature","geometry":{"type":"Point","coordinates":[7.87577372397,48.68468630078]},"properties":{"slug":"zone-de-loisirs-gambsheim-gambsheim","name":"Zone de Loisirs Gambsheim","city":"Gambsheim","department":"Bas-Rhin","type":"Lac","score":90,"comfort":true,"wheelchair":true,"lifeguard":true,"dogs":true}},{"type":"Feature","geometry":{"type":"Point","coordinates":[8.01571573848,48.83073001298]},"properties":{"slug":"camping-plage-staedly-roeschwoog-roeschwoog","name":"Camping-Plage Staedly Roeschwoog","city":"Roeschwoog","department":"Bas-Rhin","type":"Lac","score":90,"comfort":true,"wheelchair":true,"lifeguard":true,"dogs":false}},{"type":"Feature","geometry":{"type":"Point","coordinates":[7.37416474148,48.11321604368]},"properties":{"slug":"base-nautique-de-colmar-houssen-colmar","name":"Base Nautique de Colmar Houssen","city":"Colmar","department":"Haut-Rhin","type":"Lac","score":90,"comfort":true,"wheelchair":true,"lifeguard":true,"dogs":false}},{"type":"Feature","geometry":{"type":"Point","coordinates":[7.23403348272,47.76712405297]},"properties":{"slug":"plan-d-eau-de-reiningue-reiningue","name":"Plan d'Eau de Reiningue","city":"Reiningue","department":"Haut-Rhin","type":"Lac","score":90,"comfort":true,"wheelchair":true,"lifeguard":true,"dogs":true}},{"type":"Feature","geometry":{"type":"Point","coordinates":[3.30959387436,49.64763898257]},"properties":{"slug":"la-frette-tergnier","name":"La Frette","city":"Tergnier","department":"Aisne","type":"Lac","score":90,"comfort":true,"wheelchair":true,"lifeguard":true,"dogs":true}},{"type":"Feature","geometry":{"type":"Point","coordinates":[2.05462591922,49.45659953904]},"properties":{"slug":"beauvais-plan-d-eau-du-canada-beauvais","name":"Beauvais-Plan d'Eau du Canada","city":"Beauvais","department":"Oise","type":"Lac","score":90,"comfort":true,"wheelchair":true,"lifeguard":true,"dogs":false}},{"type":"Feature","geometry":{"type":"Point","coordinates":[2.73145063949,48.1753229104]},"properties":{"slug":"souppes-sur-loing-base-de-loisirs-souppes-sur-loing","name":"Souppes-sur-Loing - Base de Loisirs","city":"Souppes-sur-Loing","department":"Seine-et-Marne","type":"Lac","score":90,"comfort":true,"wheelchair":true,"lifeguard":true,"dogs":false}},{"type":"Feature","geometry":{"type":"Point","coordinates":[1.67571313229,49.05570970929]},"properties":{"slug":"base-de-loisirs-de-moisson-moisson","name":"Base de Loisirs de Moisson","city":"Moisson","department":"Yvelines","type":"Lac","score":90,"comfort":true,"wheelchair":true,"lifeguard":true,"dogs":true}},{"type":"Feature","geometry":{"type":"Point","coordinates":[1.95453252974,49.00101513458]},"properties":{"slug":"base-de-loisirs-de-verneuil-verneuil-sur-seine","name":"Base de Loisirs de Verneuil","city":"Verneuil-sur-Seine","department":"Yvelines","type":"Lac","score":90,"comfort":true,"wheelchair":true,"lifeguard":true,"dogs":true}},{"type":"Feature","geometry":{"type":"Point","coordinates":[2.12593216608,45.52271986448]},"properties":{"slug":"lac-de-sechemailles-ambrugeat","name":"Lac de Sechemailles","city":"Ambrugeat","department":"Corrèze","type":"Lac","score":90,"comfort":true,"wheelchair":true,"lifeguard":true,"dogs":true}},{"type":"Feature","geometry":{"type":"Point","coordinates":[1.76472878944,45.13044341627]},"properties":{"slug":"etang-de-miel-beynat","name":"Etang de Miel","city":"Beynat","department":"Corrèze","type":"Lac","score":90,"comfort":true,"wheelchair":true,"lifeguard":true,"dogs":false}},{"type":"Feature","geometry":{"type":"Point","coordinates":[1.54861403554,45.54323964139]},"properties":{"slug":"plan-d-eau-masseret-lamongerie-masseret","name":"Plan d'Eau Masseret-Lamongerie","city":"Masseret","department":"Corrèze","type":"Lac","score":90,"comfort":true,"wheelchair":true,"lifeguard":true,"dogs":false}},{"type":"Feature","geometry":{"type":"Point","coordinates":[1.939617276,45.67723627729]},"properties":{"slug":"l-enclause-tarnac","name":"L'Enclause","city":"Tarnac","department":"Corrèze","type":"Lac","score":90,"comfort":true,"wheelchair":true,"lifeguard":true,"dogs":false}},{"type":"Feature","geometry":{"type":"Point","coordinates":[1.81413479963,45.55936888208]},"properties":{"slug":"les-bariousses-treignac","name":"Les Bariousses","city":"Treignac","department":"Corrèze","type":"Lac","score":90,"comfort":true,"wheelchair":true,"lifeguard":true,"dogs":false}},{"type":"Feature","geometry":{"type":"Point","coordinates":[1.53709196417,45.36824468463]},"properties":{"slug":"poncharal-vigeois","name":"Poncharal","city":"Vigeois","department":"Corrèze","type":"Lac","score":90,"comfort":true,"wheelchair":true,"lifeguard":true,"dogs":false}},{"type":"Feature","geometry":{"type":"Point","coordinates":[-1.19933209531,44.4549402472]},"properties":{"slug":"plage-maguide-biscarrosse","name":"Plage Maguide","city":"Biscarrosse","department":"Landes","type":"Lac","score":90,"comfort":true,"wheelchair":true,"lifeguard":true,"dogs":true}},{"type":"Feature","geometry":{"type":"Point","coordinates":[-1.31211902306,43.90152827405]},"properties":{"slug":"lac-de-vielle-vielle-saint-girons","name":"Lac de Vielle","city":"Vielle-Saint-Girons","department":"Landes","type":"Lac","score":90,"comfort":true,"wheelchair":true,"lifeguard":true,"dogs":true}},{"type":"Feature","geometry":{"type":"Point","coordinates":[0.07070393101,44.29431960923]},"properties":{"slug":"lac-de-clarens-casteljaloux","name":"Lac de Clarens","city":"Casteljaloux","department":"Lot-et-Garonne","type":"Lac","score":90,"comfort":true,"wheelchair":true,"lifeguard":true,"dogs":false}},{"type":"Feature","geometry":{"type":"Point","coordinates":[0.62100791784,44.57880656419]},"properties":{"slug":"lac-de-lougratte-lougratte","name":"Lac de Lougratte","city":"Lougratte","department":"Lot-et-Garonne","type":"Lac","score":90,"comfort":true,"wheelchair":true,"lifeguard":true,"dogs":false}},{"type":"Feature","geometry":{"type":"Point","coordinates":[-0.26259124156,43.19940197769]},"properties":{"slug":"lac-de-baudreix-baudreix","name":"Lac de Baudreix","city":"Baudreix","department":"Pyrénées-Atlantiques","type":"Lac","score":90,"comfort":true,"wheelchair":true,"lifeguard":true,"dogs":false}},{"type":"Feature","geometry":{"type":"Point","coordinates":[-0.75356073994,43.47496585148]},"properties":{"slug":"lac-de-la-base-de-loisirs-d-orthez-orthez","name":"Lac de la Base de Loisirs d'Orthez","city":"Orthez","department":"Pyrénées-Atlantiques","type":"Lac","score":90,"comfort":true,"wheelchair":true,"lifeguard":true,"dogs":false}},{"type":"Feature","geometry":{"type":"Point","coordinates":[0.46241738708,46.72001029317]},"properties":{"slug":"st-cyr-parc-de-loisirs-etang-beaumont-saint-cyr","name":"St Cyr - Parc de Loisirs (Etang)","city":"Beaumont Saint-Cyr","department":"Vienne","type":"Lac","score":90,"comfort":true,"wheelchair":true,"lifeguard":true,"dogs":false}},{"type":"Feature","geometry":{"type":"Point","coordinates":[0.52264380807,46.79670867062]},"properties":{"slug":"chatellerault-lac-de-la-foret-chatellerault","name":"Chatellerault - Lac de la Foret","city":"Chatellerault","department":"Vienne","type":"Lac","score":90,"comfort":true,"wheelchair":true,"lifeguard":true,"dogs":false}},{"type":"Feature","geometry":{"type":"Point","coordinates":[0.75573764509,46.64504069739]},"properties":{"slug":"la-puye-plan-d-eau-communal-puye-la","name":"La Puye - Plan d'Eau Communal","city":"Puye (La)","department":"Vienne","type":"Lac","score":90,"comfort":true,"wheelchair":true,"lifeguard":true,"dogs":false}},{"type":"Feature","geometry":{"type":"Point","coordinates":[1.03108170462,45.61448401206]},"properties":{"slug":"plan-d-eau-de-bussiere-galant-bussiere-galant","name":"Plan d'Eau de Bussiere-Galant","city":"Bussiere-Galant","department":"Haute-Vienne","type":"Lac","score":90,"comfort":true,"wheelchair":true,"lifeguard":true,"dogs":true}},{"type":"Feature","geometry":{"type":"Point","coordinates":[1.50141661995,45.6098706462]},"properties":{"slug":"montreal-saint-germain-les-belles","name":"Montreal","city":"Saint-Germain-les-Belles","department":"Haute-Vienne","type":"Lac","score":90,"comfort":true,"wheelchair":true,"lifeguard":true,"dogs":true}},{"type":"Feature","geometry":{"type":"Point","coordinates":[0.43093301323,43.81041833756]},"properties":{"slug":"lac-de-castera-verduzan-castera-verduzan","name":"Lac de Castera Verduzan","city":"Castera-Verduzan","department":"Gers","type":"Lac","score":90,"comfort":true,"wheelchair":true,"lifeguard":true,"dogs":false}},{"type":"Feature","geometry":{"type":"Point","coordinates":[-0.04148721007,43.93755184065]},"properties":{"slug":"lac-de-l-uby-cazaubon","name":"Lac de l'Uby","city":"Cazaubon","department":"Gers","type":"Lac","score":90,"comfort":true,"wheelchair":true,"lifeguard":true,"dogs":false}},{"type":"Feature","geometry":{"type":"Point","coordinates":[0.67258778801,43.33435351814]},"properties":{"slug":"barrage-de-la-gimone-saint-blancard","name":"Barrage de la Gimone","city":"Saint-Blancard","department":"Gers","type":"Lac","score":90,"comfort":true,"wheelchair":true,"lifeguard":true,"dogs":false}},{"type":"Feature","geometry":{"type":"Point","coordinates":[0.76396087031,43.51413273546]},"properties":{"slug":"lac-de-saramon-saramon","name":"Lac de Saramon","city":"Saramon","department":"Gers","type":"Lac","score":90,"comfort":true,"wheelchair":true,"lifeguard":true,"dogs":true}},{"type":"Feature","geometry":{"type":"Point","coordinates":[2.67967928566,43.60211190574]},"properties":{"slug":"lac-de-la-raviege-les-bouldouires-salvetat-sur-agout-la","name":"Lac de la Raviege-les Bouldouires","city":"Salvetat-sur-Agout (La)","department":"Hérault","type":"Lac","score":90,"comfort":true,"wheelchair":true,"lifeguard":true,"dogs":true}},{"type":"Feature","geometry":{"type":"Point","coordinates":[2.140116756,44.0839701881]},